Satélites/Practica 1/Geo Eclipse Summary.txt

                                                                                                                                                                                4 Oct 2022 19:46:17
Satellite-Geo


Penumbra Start Time (UTCG)     Umbra Start Time (UTCG)     Umbra Stop Time (UTCG)     Penumbra Stop Time (UTCG)    Obstruction    Duration (sec)    Max Percent Shadow    Time of Max Shadow (UTCG)
--------------------------    ------------------------    ------------------------    -------------------------    -----------    --------------    ------------------    -------------------------
  28 Sep 2022 01:55:48.970    28 Sep 2022 01:58:00.005    28 Sep 2022 03:03:36.400     28 Sep 2022 03:05:47.437    Earth                4198.467            100.000000     28 Sep 2022 01:58:00.005
  29 Sep 2022 01:55:52.029    29 Sep 2022 01:58:04.699    29 Sep 2022 03:02:51.397     29 Sep 2022 03:05:04.073    Earth                4152.043            100.000000     29 Sep 2022 01:58:04.699
  30 Sep 2022 01:55:59.807    30 Sep 2022 01:58:14.482    30 Sep 2022 03:02:01.781     30 Sep 2022 03:04:16.458    Earth                4096.651            100.000000     30 Sep 2022 01:58:14.482
   1 Oct 2022 01:56:12.498     1 Oct 2022 01:58:29.578     1 Oct 2022 03:01:07.356      1 Oct 2022 03:03:24.439    Earth                4031.942            100.000000      1 Oct 2022 01:58:29.578
   2 Oct 2022 01:56:30.324     2 Oct 2022 01:58:50.274     2 Oct 2022 03:00:07.873      2 Oct 2022 03:02:27.826    Earth                3957.502            100.000000      2 Oct 2022 01:58:50.274
   3 Oct 2022 01:56:53.560     3 Oct 2022 01:59:16.915     3 Oct 2022 02:59:03.022      3 Oct 2022 03:01:26.383    Earth                3872.823            100.000000      3 Oct 2022 01:59:16.915
   4 Oct 2022 01:57:22.530     4 Oct 2022 01:59:49.933     4 Oct 2022 02:57:52.410      4 Oct 2022 03:00:19.815    Earth                3777.285            100.000000      4 Oct 2022 01:59:49.933
   5 Oct 2022 01:57:57.651     5 Oct 2022 02:00:29.869     5 Oct 2022 02:56:35.528      5 Oct 2022 02:59:07.749    Earth                3670.098            100.000000      5 Oct 2022 02:00:29.869
   6 Oct 2022 01:58:39.426     6 Oct 2022 02:01:17.413     6 Oct 2022 02:55:11.729      6 Oct 2022 02:57:49.721    Earth                3550.295            100.000000      6 Oct 2022 02:01:17.413
   7 Oct 2022 01:59:28.498     7 Oct 2022 02:02:13.464     7 Oct 2022 02:53:40.157      7 Oct 2022 02:56:25.131    Earth                3416.633            100.000000      7 Oct 2022 02:02:13.464
   8 Oct 2022 02:00:25.691     8 Oct 2022 02:03:19.222     8 Oct 2022 02:51:59.666      8 Oct 2022 02:54:53.207    Earth                3267.516            100.000000      8 Oct 2022 02:03:19.222
   9 Oct 2022 02:01:32.081     9 Oct 2022 02:04:36.349     9 Oct 2022 02:50:08.643      9 Oct 2022 02:53:12.918    Earth                3100.837            100.000000      9 Oct 2022 02:04:36.349
  10 Oct 2022 02:02:49.141    10 Oct 2022 02:06:07.247    10 Oct 2022 02:48:04.736     10 Oct 2022 02:51:22.847    Earth                2913.706            100.000000     10 Oct 2022 02:06:07.247
  11 Oct 2022 02:04:18.938    11 Oct 2022 02:07:55.621    11 Oct 2022 02:45:44.278     11 Oct 2022 02:49:20.970    Earth                2702.031            100.000000     11 Oct 2022 02:07:55.621
  12 Oct 2022 02:06:04.567    12 Oct 2022 02:10:07.802    12 Oct 2022 02:43:01.003     12 Oct 2022 02:47:04.244    Earth                2459.677            100.000000     12 Oct 2022 02:10:07.802
  13 Oct 2022 02:08:11.065    13 Oct 2022 02:12:56.439    13 Oct 2022 02:39:42.295     13 Oct 2022 02:44:27.680    Earth                2176.615            100.000000     13 Oct 2022 02:12:56.439
  14 Oct 2022 02:10:47.677    14 Oct 2022 02:16:56.324    14 Oct 2022 02:35:13.411     14 Oct 2022 02:41:22.065    Earth                1834.388            100.000000     14 Oct 2022 02:16:56.324
  15 Oct 2022 02:14:15.748                         N/A                         N/A     15 Oct 2022 02:37:26.092    Earth                1390.345             94.280705     15 Oct 2022 02:25:49.496
  16 Oct 2022 02:20:04.733                         N/A                         N/A     16 Oct 2022 02:31:10.360    Earth                 665.628             14.439682     16 Oct 2022 02:25:36.119
  24 Nov 2022 01:31:01.484                         N/A                         N/A     24 Nov 2022 01:59:49.344    Moon                 1727.860             52.166134     24 Nov 2022 01:45:17.577
  26 Feb 2023 02:47:53.867                         N/A                         N/A     26 Feb 2023 02:58:07.863    Earth                 613.996             10.616702     26 Feb 2023 02:52:59.432
  27 Feb 2023 02:41:23.084                         N/A                         N/A     27 Feb 2023 03:04:18.448    Earth                1375.364             91.399787     27 Feb 2023 02:52:49.331
  28 Feb 2023 02:37:25.407    28 Feb 2023 02:43:39.401    28 Feb 2023 03:01:40.801     28 Feb 2023 03:07:54.790    Earth                1829.384            100.000000     28 Feb 2023 02:43:39.401
   1 Mar 2023 02:34:20.218     1 Mar 2023 02:39:07.953     1 Mar 2023 03:05:49.823      1 Mar 2023 03:10:37.549    Earth                2177.331            100.000000      1 Mar 2023 02:39:07.953
   2 Mar 2023 02:31:44.979     2 Mar 2023 02:35:49.669     2 Mar 2023 03:08:44.613      2 Mar 2023 03:12:49.295    Earth                2464.315            100.000000      2 Mar 2023 02:35:49.669
   3 Mar 2023 02:29:30.100     3 Mar 2023 02:33:07.831     3 Mar 2023 03:11:01.942      3 Mar 2023 03:14:39.667    Earth                2709.567            100.000000      3 Mar 2023 02:33:07.831
   4 Mar 2023 02:27:30.419     4 Mar 2023 02:30:49.354     4 Mar 2023 03:12:54.923      4 Mar 2023 03:16:13.854    Earth                2923.435            100.000000      4 Mar 2023 02:30:49.354
   5 Mar 2023 02:25:42.801     5 Mar 2023 02:28:47.778     5 Mar 2023 03:14:30.066      5 Mar 2023 03:17:35.035    Earth                3112.234            100.000000      5 Mar 2023 02:28:47.778
   6 Mar 2023 02:24:05.166     6 Mar 2023 02:26:59.336     6 Mar 2023 03:15:51.174      6 Mar 2023 03:18:45.337    Earth                3280.171            100.000000      6 Mar 2023 02:26:59.336
   7 Mar 2023 02:22:36.067     7 Mar 2023 02:25:21.627     7 Mar 2023 03:17:00.701      7 Mar 2023 03:19:46.253    Earth                3430.186            100.000000      7 Mar 2023 02:25:21.627
   8 Mar 2023 02:21:14.444     8 Mar 2023 02:23:52.999     8 Mar 2023 03:18:00.330      8 Mar 2023 03:20:38.883    Earth                3564.439            100.000000      8 Mar 2023 02:23:52.999
   9 Mar 2023 02:19:59.507     9 Mar 2023 02:22:32.287     9 Mar 2023 03:18:51.291      9 Mar 2023 03:21:24.065    Earth                3684.558            100.000000      9 Mar 2023 02:22:32.287
  10 Mar 2023 02:18:50.650    10 Mar 2023 02:21:18.614    10 Mar 2023 03:19:34.498     10 Mar 2023 03:22:02.457    Earth                3791.807            100.000000     10 Mar 2023 02:21:18.614
  11 Mar 2023 02:17:47.400    11 Mar 2023 02:20:11.327    11 Mar 2023 03:20:10.654     11 Mar 2023 03:22:34.578    Earth                3887.178            100.000000     11 Mar 2023 02:20:11.327
  12 Mar 2023 02:16:49.389    12 Mar 2023 02:19:09.925    12 Mar 2023 03:20:40.316     12 Mar 2023 03:23:00.848    Earth                3971.459            100.000000     12 Mar 2023 02:19:09.925
  13 Mar 2023 02:15:56.313    13 Mar 2023 02:18:14.001    13 Mar 2023 03:21:03.925     13 Mar 2023 03:23:21.609    Earth                4045.297            100.000000     13 Mar 2023 02:18:14.001
  14 Mar 2023 02:15:07.945    14 Mar 2023 02:17:23.256    14 Mar 2023 03:21:21.837     14 Mar 2023 03:23:37.142    Earth                4109.198            100.000000     14 Mar 2023 02:17:23.256
  15 Mar 2023 02:14:24.095    15 Mar 2023 02:16:37.439    15 Mar 2023 03:21:34.338     15 Mar 2023 03:23:47.676    Earth                4163.581            100.000000     15 Mar 2023 02:16:37.439
  16 Mar 2023 02:13:44.616    16 Mar 2023 02:15:56.360    16 Mar 2023 03:21:41.660     16 Mar 2023 03:23:53.396    Earth                4208.781            100.000000     16 Mar 2023 02:15:56.360
  17 Mar 2023 02:13:09.391    17 Mar 2023 02:15:19.868    17 Mar 2023 03:21:43.986     17 Mar 2023 03:23:54.459    Earth                4245.068            100.000000     17 Mar 2023 02:15:19.868
  18 Mar 2023 02:12:38.335    18 Mar 2023 02:14:47.856    18 Mar 2023 03:21:41.461     18 Mar 2023 03:23:50.982    Earth                4272.647            100.000000     18 Mar 2023 02:14:47.856
  19 Mar 2023 02:12:11.384    19 Mar 2023 02:14:20.245    19 Mar 2023 03:21:34.203     19 Mar 2023 03:23:43.059    Earth                4291.674            100.000000     19 Mar 2023 02:14:20.245
  20 Mar 2023 02:11:48.502    20 Mar 2023 02:13:56.977    20 Mar 2023 03:21:22.294     20 Mar 2023 03:23:30.767    Earth                4302.265            100.000000     20 Mar 2023 02:13:56.977
  21 Mar 2023 02:11:29.673    21 Mar 2023 02:13:38.036    21 Mar 2023 03:21:05.787     21 Mar 2023 03:23:14.152    Earth                4304.479            100.000000     21 Mar 2023 02:13:38.036
  22 Mar 2023 02:11:14.898    22 Mar 2023 02:13:23.428    22 Mar 2023 03:20:44.719     22 Mar 2023 03:22:53.244    Earth                4298.346            100.000000     22 Mar 2023 02:13:23.428
  23 Mar 2023 02:11:04.210    23 Mar 2023 02:13:13.172    23 Mar 2023 03:20:19.097     23 Mar 2023 03:22:28.058    Earth                4283.848            100.000000     23 Mar 2023 02:13:13.172
  24 Mar 2023 02:10:57.653    24 Mar 2023 02:13:07.332    24 Mar 2023 03:19:48.896     24 Mar 2023 03:21:58.575    Earth                4260.922            100.000000     24 Mar 2023 02:13:07.332
  25 Mar 2023 02:10:55.297    25 Mar 2023 02:13:05.988    25 Mar 2023 03:19:14.076     25 Mar 2023 03:21:24.765    Earth                4229.468            100.000000     25 Mar 2023 02:13:05.988
  26 Mar 2023 02:10:57.235    26 Mar 2023 02:13:09.250    26 Mar 2023 03:18:34.554     26 Mar 2023 03:20:46.572    Earth                4189.338            100.000000     26 Mar 2023 02:13:09.250
  27 Mar 2023 02:11:03.582    27 Mar 2023 02:13:17.270    27 Mar 2023 03:17:50.227     27 Mar 2023 03:20:03.912    Earth                4140.331            100.000000     27 Mar 2023 02:13:17.270
  28 Mar 2023 02:11:14.492    28 Mar 2023 02:13:30.218    28 Mar 2023 03:17:00.947     28 Mar 2023 03:19:16.671    Earth                4082.180            100.000000     28 Mar 2023 02:13:30.218
  29 Mar 2023 02:11:30.145    29 Mar 2023 02:13:48.337    29 Mar 2023 03:16:06.513     29 Mar 2023 03:18:24.706    Earth                4014.561            100.000000     29 Mar 2023 02:13:48.337
  30 Mar 2023 02:11:50.768    30 Mar 2023 02:14:11.902    30 Mar 2023 03:15:06.689     30 Mar 2023 03:17:27.824    Earth                3937.055            100.000000     30 Mar 2023 02:14:11.902
  31 Mar 2023 02:12:16.637    31 Mar 2023 02:14:41.274    31 Mar 2023 03:14:01.148     31 Mar 2023 03:16:25.790    Earth                3849.153            100.000000     31 Mar 2023 02:14:41.274
   1 Apr 2023 02:12:48.089     1 Apr 2023 02:15:16.896     1 Apr 2023 03:12:49.495      1 Apr 2023 03:15:18.304    Earth                3750.215            100.000000      1 Apr 2023 02:15:16.896
   2 Apr 2023 02:13:25.545     2 Apr 2023 02:15:59.328     2 Apr 2023 03:11:31.209      2 Apr 2023 03:14:04.992    Earth                3639.446            100.000000      2 Apr 2023 02:15:59.328
   3 Apr 2023 02:14:09.522     3 Apr 2023 02:16:49.288     3 Apr 2023 03:10:05.607      3 Apr 2023 03:12:45.373    Earth                3515.851            100.000000      3 Apr 2023 02:16:49.288
   4 Apr 2023 02:15:00.689     4 Apr 2023 02:17:47.720     4 Apr 2023 03:08:31.790      4 Apr 2023 03:11:18.825    Earth                3378.136            100.000000      4 Apr 2023 02:17:47.720
   5 Apr 2023 02:15:59.899     5 Apr 2023 02:18:55.892     5 Apr 2023 03:06:48.541      5 Apr 2023 03:09:44.540    Earth                3224.641            100.000000      5 Apr 2023 02:18:55.892
   6 Apr 2023 02:17:08.283     6 Apr 2023 02:20:15.578     6 Apr 2023 03:04:54.127      6 Apr 2023 03:08:01.425    Earth                3053.142            100.000000      6 Apr 2023 02:20:15.578
   7 Apr 2023 02:18:27.401     7 Apr 2023 02:21:49.383     7 Apr 2023 03:02:45.990      7 Apr 2023 03:06:07.977    Earth                2860.577            100.000000      7 Apr 2023 02:21:49.383
   8 Apr 2023 02:19:59.477     8 Apr 2023 02:23:41.422     8 Apr 2023 03:00:20.058      8 Apr 2023 03:04:02.007    Earth                2642.530            100.000000      8 Apr 2023 02:23:41.422
   9 Apr 2023 02:21:47.893     9 Apr 2023 02:25:58.917     9 Apr 2023 02:57:29.160      9 Apr 2023 03:01:40.189    Earth                2392.296            100.000000      9 Apr 2023 02:25:58.917
  10 Apr 2023 02:23:58.275    10 Apr 2023 02:28:57.087    10 Apr 2023 02:53:58.111     10 Apr 2023 02:58:56.927    Earth                2098.651            100.000000     10 Apr 2023 02:28:57.087
  11 Apr 2023 02:26:41.401    11 Apr 2023 02:33:23.621    11 Apr 2023 02:48:59.264     11 Apr 2023 02:55:41.487    Earth                1740.086            100.000000     11 Apr 2023 02:33:23.621
  12 Apr 2023 02:30:24.106                         N/A                         N/A     12 Apr 2023 02:51:27.078    Earth                1262.973             78.972579     12 Apr 2023 02:40:54.172
  13 Apr 2023 02:37:56.333                         N/A                         N/A     13 Apr 2023 02:43:23.779    Earth                 327.446              1.972666     13 Apr 2023 02:40:38.635
  31 Aug 2023 02:33:35.193                         N/A                         N/A     31 Aug 2023 02:47:35.871    Earth                 840.678             27.311220     31 Aug 2023 02:40:34.127
   1 Sep 2023 02:28:03.299     1 Sep 2023 02:39:18.662     1 Sep 2023 02:41:14.546      1 Sep 2023 02:52:29.909    Earth                1466.610            100.000000      1 Sep 2023 02:39:18.662
   2 Sep 2023 02:24:16.457     2 Sep 2023 02:30:04.685     2 Sep 2023 02:49:50.061      2 Sep 2023 02:55:38.282    Earth                1881.826            100.000000      2 Sep 2023 02:30:04.685
   3 Sep 2023 02:21:13.722     3 Sep 2023 02:25:49.967     3 Sep 2023 02:53:25.752      3 Sep 2023 02:58:01.997    Earth                2208.275            100.000000      3 Sep 2023 02:25:49.967
   4 Sep 2023 02:18:37.593     4 Sep 2023 02:22:35.379     4 Sep 2023 02:56:00.808      4 Sep 2023 02:59:58.594    Earth                2481.001            100.000000      4 Sep 2023 02:22:35.379
   5 Sep 2023 02:16:20.075     5 Sep 2023 02:19:53.061     5 Sep 2023 02:58:03.129      5 Sep 2023 03:01:36.111    Earth                2716.037            100.000000      5 Sep 2023 02:19:53.061
   6 Sep 2023 02:14:16.727     6 Sep 2023 02:17:32.138     6 Sep 2023 02:59:43.622      6 Sep 2023 03:02:59.027    Earth                2922.300            100.000000      6 Sep 2023 02:17:32.138
   7 Sep 2023 02:12:24.786     7 Sep 2023 02:15:26.995     7 Sep 2023 03:01:07.930      7 Sep 2023 03:04:10.135    Earth                3105.349            100.000000      7 Sep 2023 02:15:26.995
   8 Sep 2023 02:10:42.399     8 Sep 2023 02:13:34.306     8 Sep 2023 03:02:19.424      8 Sep 2023 03:05:11.331    Earth                3268.933            100.000000      8 Sep 2023 02:13:34.306
   9 Sep 2023 02:09:08.254     9 Sep 2023 02:11:51.907     9 Sep 2023 03:03:20.304      9 Sep 2023 03:06:03.956    Earth                3415.702            100.000000      9 Sep 2023 02:11:51.907
  10 Sep 2023 02:07:41.380    10 Sep 2023 02:10:18.287    10 Sep 2023 03:04:12.102     10 Sep 2023 03:06:49.007    Earth                3547.627            100.000000     10 Sep 2023 02:10:18.287
  11 Sep 2023 02:06:21.060    11 Sep 2023 02:08:52.381    11 Sep 2023 03:04:55.920     11 Sep 2023 03:07:27.239    Earth                3666.179            100.000000     11 Sep 2023 02:08:52.381
  12 Sep 2023 02:05:06.735    12 Sep 2023 02:07:33.383    12 Sep 2023 03:05:32.592     12 Sep 2023 03:07:59.248    Earth                3772.513            100.000000     12 Sep 2023 02:07:33.383
  13 Sep 2023 02:03:57.956    13 Sep 2023 02:06:20.684    13 Sep 2023 03:06:02.778     13 Sep 2023 03:08:25.500    Earth                3867.544            100.000000     13 Sep 2023 02:06:20.684
  14 Sep 2023 02:02:54.383    14 Sep 2023 02:05:13.804    14 Sep 2023 03:06:26.971     14 Sep 2023 03:08:46.386    Earth                3952.002            100.000000     14 Sep 2023 02:05:13.804
  15 Sep 2023 02:01:55.747    15 Sep 2023 02:04:12.383    15 Sep 2023 03:06:45.574     15 Sep 2023 03:09:02.215    Earth                4026.468            100.000000     15 Sep 2023 02:04:12.383
  16 Sep 2023 02:01:01.822    16 Sep 2023 02:03:16.122    16 Sep 2023 03:06:58.929     16 Sep 2023 03:09:13.230    Earth                4091.408            100.000000     16 Sep 2023 02:03:16.122
  17 Sep 2023 02:00:12.435    17 Sep 2023 02:02:24.799    17 Sep 2023 03:07:07.284     17 Sep 2023 03:09:19.649    Earth                4147.214            100.000000     17 Sep 2023 02:02:24.799
  18 Sep 2023 01:59:27.445    18 Sep 2023 02:01:38.239    18 Sep 2023 03:07:10.855     18 Sep 2023 03:09:21.649    Earth                4194.204            100.000000     18 Sep 2023 02:01:38.239
  19 Sep 2023 01:58:46.766    19 Sep 2023 02:00:56.303    19 Sep 2023 03:07:09.823     19 Sep 2023 03:09:19.361    Earth                4232.595            100.000000     19 Sep 2023 02:00:56.303
  20 Sep 2023 01:58:10.300    20 Sep 2023 02:00:18.882    20 Sep 2023 03:07:04.313     20 Sep 2023 03:09:12.901    Earth                4262.601            100.000000     20 Sep 2023 02:00:18.882
  21 Sep 2023 01:57:38.016    21 Sep 2023 01:59:45.920    21 Sep 2023 03:06:54.442     21 Sep 2023 03:09:02.352    Earth                4284.336            100.000000     21 Sep 2023 01:59:45.920
  22 Sep 2023 01:57:09.864    22 Sep 2023 01:59:17.376    22 Sep 2023 03:06:40.288     22 Sep 2023 03:08:47.793    Earth                4297.929            100.000000     22 Sep 2023 01:59:17.376
  23 Sep 2023 01:56:45.849    23 Sep 2023 01:58:53.217    23 Sep 2023 03:06:21.891     23 Sep 2023 03:08:29.260    Earth                4303.411            100.000000     23 Sep 2023 01:58:53.217
  24 Sep 2023 01:56:25.982    24 Sep 2023 01:58:33.472    24 Sep 2023 03:05:59.297     24 Sep 2023 03:08:06.789    Earth                4300.806            100.000000     24 Sep 2023 01:58:33.472
  25 Sep 2023 01:56:10.280    25 Sep 2023 01:58:18.154    25 Sep 2023 03:05:32.497     25 Sep 2023 03:07:40.369    Earth                4290.089            100.000000     25 Sep 2023 01:58:18.154
  26 Sep 2023 01:55:58.813    26 Sep 2023 01:58:07.336    26 Sep 2023 03:05:01.478     26 Sep 2023 03:07:10.009    Earth                4271.196            100.000000     26 Sep 2023 01:58:07.336
  27 Sep 2023 01:55:51.640    27 Sep 2023 01:58:01.099    27 Sep 2023 03:04:26.196     27 Sep 2023 03:06:35.662    Earth                4244.022            100.000000     27 Sep 2023 01:58:01.099
