Satélites/Practica 1/LEO Eclipse Summary.txt

                                                                                                                                                                               11 Oct 2022 19:33:20
Satellite-LEO


Penumbra Start Time (UTCG)     Umbra Start Time (UTCG)     Umbra Stop Time (UTCG)     Penumbra Stop Time (UTCG)    Obstruction    Duration (sec)    Max Percent Shadow    Time of Max Shadow (UTCG)
--------------------------    ------------------------    ------------------------    -------------------------    -----------    --------------    ------------------    -------------------------
                   No Data    27 Sep 2022 10:00:00.000    27 Sep 2022 10:19:13.087     27 Sep 2022 10:19:20.912    Earth                1160.912            100.000000     27 Sep 2022 10:00:00.000
  27 Sep 2022 11:10:25.865    27 Sep 2022 11:10:33.688    27 Sep 2022 11:47:33.442     27 Sep 2022 11:47:41.273    Earth                2235.407            100.000000     27 Sep 2022 11:10:33.688
  27 Sep 2022 12:38:46.215    27 Sep 2022 12:38:54.037    27 Sep 2022 13:15:53.796     27 Sep 2022 13:16:01.629    Earth                2235.413            100.000000     27 Sep 2022 12:38:54.037
  27 Sep 2022 14:07:06.576    27 Sep 2022 14:07:14.398    27 Sep 2022 14:44:14.152     27 Sep 2022 14:44:21.982    Earth                2235.406            100.000000     27 Sep 2022 14:07:14.398
  27 Sep 2022 15:35:26.935    27 Sep 2022 15:35:34.759    27 Sep 2022 16:12:34.501     27 Sep 2022 16:12:42.331    Earth                2235.397            100.000000     27 Sep 2022 15:35:34.759
  27 Sep 2022 17:03:47.304    27 Sep 2022 17:03:55.126    27 Sep 2022 17:40:54.849     27 Sep 2022 17:41:02.684    Earth                2235.380            100.000000     27 Sep 2022 17:03:55.126
  27 Sep 2022 18:32:07.675    27 Sep 2022 18:32:15.497    27 Sep 2022 19:09:15.196     27 Sep 2022 19:09:23.029    Earth                2235.354            100.000000     27 Sep 2022 18:32:15.497
  27 Sep 2022 20:00:28.053    27 Sep 2022 20:00:35.876    27 Sep 2022 20:37:35.542     27 Sep 2022 20:37:43.380    Earth                2235.328            100.000000     27 Sep 2022 20:00:35.876
  27 Sep 2022 21:28:48.439    27 Sep 2022 21:28:56.261    27 Sep 2022 22:05:55.891     27 Sep 2022 22:06:03.723    Earth                2235.284            100.000000     27 Sep 2022 21:28:56.261
  27 Sep 2022 22:57:08.826    27 Sep 2022 22:57:16.650    27 Sep 2022 23:34:16.235     27 Sep 2022 23:34:24.073    Earth                2235.248            100.000000     27 Sep 2022 22:57:16.650
  28 Sep 2022 00:25:29.224    28 Sep 2022 00:25:37.049    28 Sep 2022 01:02:36.575     28 Sep 2022 01:02:44.415    Earth                2235.191            100.000000     28 Sep 2022 00:25:37.049
  28 Sep 2022 01:53:49.627    28 Sep 2022 01:53:57.451    28 Sep 2022 02:30:56.923     28 Sep 2022 02:31:04.765    Earth                2235.138            100.000000     28 Sep 2022 01:53:57.451
  28 Sep 2022 03:22:10.037    28 Sep 2022 03:22:17.865    28 Sep 2022 03:59:17.263     28 Sep 2022 03:59:25.107    Earth                2235.070            100.000000     28 Sep 2022 03:22:17.865
  28 Sep 2022 04:50:30.452    28 Sep 2022 04:50:38.281    28 Sep 2022 05:27:37.608     28 Sep 2022 05:27:45.455    Earth                2235.002            100.000000     28 Sep 2022 04:50:38.281
  28 Sep 2022 06:18:50.879    28 Sep 2022 06:18:58.707    28 Sep 2022 06:55:57.956     28 Sep 2022 06:56:05.805    Earth                2234.926            100.000000     28 Sep 2022 06:18:58.707
  28 Sep 2022 07:47:11.309    28 Sep 2022 07:47:19.141    28 Sep 2022 08:24:18.302     28 Sep 2022 08:24:26.153    Earth                2234.845            100.000000     28 Sep 2022 07:47:19.141
  28 Sep 2022 09:15:31.751    28 Sep 2022 09:15:39.583    28 Sep 2022 09:52:38.646     28 Sep 2022 09:52:46.503    Earth                2234.752            100.000000     28 Sep 2022 09:15:39.583
  28 Sep 2022 10:43:52.197    28 Sep 2022 10:44:00.033    28 Sep 2022 11:20:58.994     28 Sep 2022 11:21:06.851    Earth                2234.655            100.000000     28 Sep 2022 10:44:00.033
  28 Sep 2022 12:12:12.653    28 Sep 2022 12:12:20.491    28 Sep 2022 12:49:19.347     28 Sep 2022 12:49:27.205    Earth                2234.552            100.000000     28 Sep 2022 12:12:20.491
  28 Sep 2022 13:40:33.118    28 Sep 2022 13:40:40.958    28 Sep 2022 14:17:39.697     28 Sep 2022 14:17:47.563    Earth                2234.445            100.000000     28 Sep 2022 13:40:40.958
  28 Sep 2022 15:08:53.591    28 Sep 2022 15:09:01.434    28 Sep 2022 15:46:00.054     28 Sep 2022 15:46:07.918    Earth                2234.326            100.000000     28 Sep 2022 15:09:01.434
  28 Sep 2022 16:37:14.074    28 Sep 2022 16:37:21.919    28 Sep 2022 17:14:20.408     28 Sep 2022 17:14:28.281    Earth                2234.207            100.000000     28 Sep 2022 16:37:21.919
  28 Sep 2022 18:05:34.565    28 Sep 2022 18:05:42.414    28 Sep 2022 18:42:40.767     28 Sep 2022 18:42:48.644    Earth                2234.078            100.000000     28 Sep 2022 18:05:42.414
  28 Sep 2022 19:33:55.067    28 Sep 2022 19:34:02.918    28 Sep 2022 20:11:01.133     28 Sep 2022 20:11:09.010    Earth                2233.944            100.000000     28 Sep 2022 19:34:02.918
  28 Sep 2022 21:02:15.580    28 Sep 2022 21:02:23.432    28 Sep 2022 21:39:21.496     28 Sep 2022 21:39:29.380    Earth                2233.800            100.000000     28 Sep 2022 21:02:23.432
  28 Sep 2022 22:30:36.098    28 Sep 2022 22:30:43.956    28 Sep 2022 23:07:41.866     28 Sep 2022 23:07:49.751    Earth                2233.653            100.000000     28 Sep 2022 22:30:43.956
  28 Sep 2022 23:58:56.628    28 Sep 2022 23:59:04.491    29 Sep 2022 00:36:02.240     29 Sep 2022 00:36:10.129    Earth                2233.501            100.000000     28 Sep 2022 23:59:04.491
  29 Sep 2022 01:27:17.171    29 Sep 2022 01:27:25.036    29 Sep 2022 02:04:22.619     29 Sep 2022 02:04:30.513    Earth                2233.342            100.000000     29 Sep 2022 01:27:25.036
  29 Sep 2022 02:55:37.723    29 Sep 2022 02:55:45.590    29 Sep 2022 03:32:43.001     29 Sep 2022 03:32:50.897    Earth                2233.174            100.000000     29 Sep 2022 02:55:45.590
  29 Sep 2022 04:23:58.286    29 Sep 2022 04:24:06.156    29 Sep 2022 05:01:03.386     29 Sep 2022 05:01:11.289    Earth                2233.003            100.000000     29 Sep 2022 04:24:06.156
  29 Sep 2022 05:52:18.859    29 Sep 2022 05:52:26.733    29 Sep 2022 06:29:23.779     29 Sep 2022 06:29:31.686    Earth                2232.827            100.000000     29 Sep 2022 05:52:26.733
  29 Sep 2022 07:20:39.444    29 Sep 2022 07:20:47.323    29 Sep 2022 07:57:44.174     29 Sep 2022 07:57:52.089    Earth                2232.645            100.000000     29 Sep 2022 07:20:47.323
  29 Sep 2022 08:49:00.040    29 Sep 2022 08:49:07.923    29 Sep 2022 09:26:04.578     29 Sep 2022 09:26:12.494    Earth                2232.454            100.000000     29 Sep 2022 08:49:07.923
  29 Sep 2022 10:17:20.647    29 Sep 2022 10:17:28.535    29 Sep 2022 10:54:24.986     29 Sep 2022 10:54:32.908    Earth                2232.261            100.000000     29 Sep 2022 10:17:28.535
  29 Sep 2022 11:45:41.267    29 Sep 2022 11:45:49.159    29 Sep 2022 12:22:45.400     29 Sep 2022 12:22:53.328    Earth                2232.061            100.000000     29 Sep 2022 11:45:49.159
  29 Sep 2022 13:14:01.899    29 Sep 2022 13:14:09.795    29 Sep 2022 13:51:05.821     29 Sep 2022 13:51:13.753    Earth                2231.855            100.000000     29 Sep 2022 13:14:09.795
  29 Sep 2022 14:42:22.542    29 Sep 2022 14:42:30.443    29 Sep 2022 15:19:26.248     29 Sep 2022 15:19:34.186    Earth                2231.644            100.000000     29 Sep 2022 14:42:30.443
  29 Sep 2022 16:10:43.198    29 Sep 2022 16:10:51.104    29 Sep 2022 16:47:46.681     29 Sep 2022 16:47:54.625    Earth                2231.427            100.000000     29 Sep 2022 16:10:51.104
  29 Sep 2022 17:39:03.867    29 Sep 2022 17:39:11.777    29 Sep 2022 18:16:07.122     29 Sep 2022 18:16:15.072    Earth                2231.205            100.000000     29 Sep 2022 17:39:11.777
  29 Sep 2022 19:07:24.548    29 Sep 2022 19:07:32.464    29 Sep 2022 19:44:27.570     29 Sep 2022 19:44:35.526    Earth                2230.978            100.000000     29 Sep 2022 19:07:32.464
  29 Sep 2022 20:35:45.242    29 Sep 2022 20:35:53.163    29 Sep 2022 21:12:48.026     29 Sep 2022 21:12:55.987    Earth                2230.745            100.000000     29 Sep 2022 20:35:53.163
  29 Sep 2022 22:04:05.950    29 Sep 2022 22:04:13.876    29 Sep 2022 22:41:08.490     29 Sep 2022 22:41:16.457    Earth                2230.507            100.000000     29 Sep 2022 22:04:13.876
  29 Sep 2022 23:32:26.670    29 Sep 2022 23:32:34.602    30 Sep 2022 00:09:28.961     30 Sep 2022 00:09:36.935    Earth                2230.264            100.000000     29 Sep 2022 23:32:34.602
  30 Sep 2022 01:00:47.405    30 Sep 2022 01:00:55.341    30 Sep 2022 01:37:49.441     30 Sep 2022 01:37:57.421    Earth                2230.016            100.000000     30 Sep 2022 01:00:55.341
  30 Sep 2022 02:29:08.152    30 Sep 2022 02:29:16.095    30 Sep 2022 03:06:09.930     30 Sep 2022 03:06:17.916    Earth                2229.764            100.000000     30 Sep 2022 02:29:16.095
  30 Sep 2022 03:57:28.914    30 Sep 2022 03:57:36.862    30 Sep 2022 04:34:30.427     30 Sep 2022 04:34:38.420    Earth                2229.506            100.000000     30 Sep 2022 03:57:36.862
  30 Sep 2022 05:25:49.689    30 Sep 2022 05:25:57.643    30 Sep 2022 06:02:50.934     30 Sep 2022 06:02:58.933    Earth                2229.243            100.000000     30 Sep 2022 05:25:57.643
  30 Sep 2022 06:54:10.479    30 Sep 2022 06:54:18.439    30 Sep 2022 07:31:11.449     30 Sep 2022 07:31:19.455    Earth                2228.976            100.000000     30 Sep 2022 06:54:18.439
  30 Sep 2022 08:22:31.282    30 Sep 2022 08:22:39.248    30 Sep 2022 08:59:31.974     30 Sep 2022 08:59:39.987    Earth                2228.705            100.000000     30 Sep 2022 08:22:39.248
  30 Sep 2022 09:50:52.100    30 Sep 2022 09:51:00.073    30 Sep 2022 10:27:52.509     30 Sep 2022 10:28:00.529    Earth                2228.428            100.000000     30 Sep 2022 09:51:00.073
  30 Sep 2022 11:19:12.933    30 Sep 2022 11:19:20.912    30 Sep 2022 11:56:13.055     30 Sep 2022 11:56:21.081    Earth                2228.148            100.000000     30 Sep 2022 11:19:20.912
  30 Sep 2022 12:47:33.780    30 Sep 2022 12:47:41.765    30 Sep 2022 13:24:33.610     30 Sep 2022 13:24:41.643    Earth                2227.863            100.000000     30 Sep 2022 12:47:41.765
  30 Sep 2022 14:15:54.643    30 Sep 2022 14:16:02.634    30 Sep 2022 14:52:54.176     30 Sep 2022 14:53:02.216    Earth                2227.574            100.000000     30 Sep 2022 14:16:02.634
  30 Sep 2022 15:44:15.520    30 Sep 2022 15:44:23.518    30 Sep 2022 16:21:14.752     30 Sep 2022 16:21:22.800    Earth                2227.281            100.000000     30 Sep 2022 15:44:23.518
  30 Sep 2022 17:12:36.412    30 Sep 2022 17:12:44.417    30 Sep 2022 17:49:35.340     30 Sep 2022 17:49:43.395    Earth                2226.983            100.000000     30 Sep 2022 17:12:44.417
  30 Sep 2022 18:40:57.319    30 Sep 2022 18:41:05.331    30 Sep 2022 19:17:55.938     30 Sep 2022 19:18:04.001    Earth                2226.682            100.000000     30 Sep 2022 18:41:05.331
  30 Sep 2022 20:09:18.242    30 Sep 2022 20:09:26.261    30 Sep 2022 20:46:16.549     30 Sep 2022 20:46:24.619    Earth                2226.377            100.000000     30 Sep 2022 20:09:26.261
  30 Sep 2022 21:37:39.180    30 Sep 2022 21:37:47.206    30 Sep 2022 22:14:37.170     30 Sep 2022 22:14:45.248    Earth                2226.068            100.000000     30 Sep 2022 21:37:47.206
  30 Sep 2022 23:06:00.134    30 Sep 2022 23:06:08.167    30 Sep 2022 23:42:57.804     30 Sep 2022 23:43:05.890    Earth                2225.756            100.000000     30 Sep 2022 23:06:08.167
   1 Oct 2022 00:34:21.103     1 Oct 2022 00:34:29.143     1 Oct 2022 01:11:18.450      1 Oct 2022 01:11:26.543    Earth                2225.440            100.000000      1 Oct 2022 00:34:29.143
   1 Oct 2022 02:02:42.088     1 Oct 2022 02:02:50.135     1 Oct 2022 02:39:39.108      1 Oct 2022 02:39:47.209    Earth                2225.121            100.000000      1 Oct 2022 02:02:50.135
   1 Oct 2022 03:31:03.089     1 Oct 2022 03:31:11.144     1 Oct 2022 04:07:59.778      1 Oct 2022 04:08:07.887    Earth                2224.798            100.000000      1 Oct 2022 03:31:11.144
   1 Oct 2022 04:59:24.106     1 Oct 2022 04:59:32.168     1 Oct 2022 05:36:20.461      1 Oct 2022 05:36:28.579    Earth                2224.472            100.000000      1 Oct 2022 04:59:32.168
   1 Oct 2022 06:27:45.139     1 Oct 2022 06:27:53.209     1 Oct 2022 07:04:41.157      1 Oct 2022 07:04:49.283    Earth                2224.144            100.000000      1 Oct 2022 06:27:53.209
   1 Oct 2022 07:56:06.188     1 Oct 2022 07:56:14.265     1 Oct 2022 08:33:01.867      1 Oct 2022 08:33:10.000    Earth                2223.812            100.000000      1 Oct 2022 07:56:14.265
   1 Oct 2022 09:24:27.253     1 Oct 2022 09:24:35.338     1 Oct 2022 10:01:22.589      1 Oct 2022 10:01:30.731    Earth                2223.477            100.000000      1 Oct 2022 09:24:35.338
   1 Oct 2022 10:52:48.335     1 Oct 2022 10:52:56.427     1 Oct 2022 11:29:43.325      1 Oct 2022 11:29:51.475    Earth                2223.140            100.000000      1 Oct 2022 10:52:56.427
   1 Oct 2022 12:21:09.433     1 Oct 2022 12:21:17.533     1 Oct 2022 12:58:04.075      1 Oct 2022 12:58:12.233    Earth                2222.801            100.000000      1 Oct 2022 12:21:17.533
   1 Oct 2022 13:49:30.547     1 Oct 2022 13:49:38.655     1 Oct 2022 14:26:24.838      1 Oct 2022 14:26:33.005    Earth                2222.458            100.000000      1 Oct 2022 13:49:38.655
   1 Oct 2022 15:17:51.677     1 Oct 2022 15:17:59.794     1 Oct 2022 15:54:45.616      1 Oct 2022 15:54:53.791    Earth                2222.114            100.000000      1 Oct 2022 15:17:59.794
   1 Oct 2022 16:46:12.824     1 Oct 2022 16:46:20.949     1 Oct 2022 17:23:06.408      1 Oct 2022 17:23:14.592    Earth                2221.767            100.000000      1 Oct 2022 16:46:20.949
   1 Oct 2022 18:14:33.988     1 Oct 2022 18:14:42.120     1 Oct 2022 18:51:27.214      1 Oct 2022 18:51:35.406    Earth                2221.418            100.000000      1 Oct 2022 18:14:42.120
   1 Oct 2022 19:42:55.168     1 Oct 2022 19:43:03.309     1 Oct 2022 20:19:48.035      1 Oct 2022 20:19:56.236    Earth                2221.068            100.000000      1 Oct 2022 19:43:03.309
   1 Oct 2022 21:11:16.365     1 Oct 2022 21:11:24.514     1 Oct 2022 21:48:08.871      1 Oct 2022 21:48:17.080    Earth                2220.715            100.000000      1 Oct 2022 21:11:24.514
   1 Oct 2022 22:39:37.578     1 Oct 2022 22:39:45.735     1 Oct 2022 23:16:29.722      1 Oct 2022 23:16:37.939    Earth                2220.361            100.000000      1 Oct 2022 22:39:45.735
   2 Oct 2022 00:07:58.808     2 Oct 2022 00:08:06.974     2 Oct 2022 00:44:50.587      2 Oct 2022 00:44:58.814    Earth                2220.006            100.000000      2 Oct 2022 00:08:06.974
   2 Oct 2022 01:36:20.056     2 Oct 2022 01:36:28.228     2 Oct 2022 02:13:11.470      2 Oct 2022 02:13:19.703    Earth                2219.647            100.000000      2 Oct 2022 01:36:28.228
   2 Oct 2022 03:04:41.319     2 Oct 2022 03:04:49.500     2 Oct 2022 03:41:32.364      2 Oct 2022 03:41:40.610    Earth                2219.290            100.000000      2 Oct 2022 03:04:49.500
   2 Oct 2022 04:33:02.598     2 Oct 2022 04:33:10.790     2 Oct 2022 05:09:53.276      2 Oct 2022 05:10:01.530    Earth                2218.932            100.000000      2 Oct 2022 04:33:10.790
   2 Oct 2022 06:01:23.893     2 Oct 2022 06:01:32.093     2 Oct 2022 06:38:14.205      2 Oct 2022 06:38:22.465    Earth                2218.572            100.000000      2 Oct 2022 06:01:32.093
   2 Oct 2022 07:29:45.207     2 Oct 2022 07:29:53.416     2 Oct 2022 08:06:35.149      2 Oct 2022 08:06:43.417    Earth                2218.209            100.000000      2 Oct 2022 07:29:53.416
   2 Oct 2022 08:58:06.537     2 Oct 2022 08:58:14.753     2 Oct 2022 09:34:56.106      2 Oct 2022 09:35:04.385    Earth                2217.848            100.000000      2 Oct 2022 08:58:14.753
   2 Oct 2022 10:26:27.883     2 Oct 2022 10:26:36.108     2 Oct 2022 11:03:17.081      2 Oct 2022 11:03:25.369    Earth                2217.486            100.000000      2 Oct 2022 10:26:36.108
   2 Oct 2022 11:54:49.246     2 Oct 2022 11:54:57.480     2 Oct 2022 12:31:38.073      2 Oct 2022 12:31:46.369    Earth                2217.123            100.000000      2 Oct 2022 11:54:57.480
   2 Oct 2022 13:23:10.626     2 Oct 2022 13:23:18.868     2 Oct 2022 13:59:59.082      2 Oct 2022 14:00:07.386    Earth                2216.760            100.000000      2 Oct 2022 13:23:18.868
   2 Oct 2022 14:51:32.021     2 Oct 2022 14:51:40.272     2 Oct 2022 15:28:20.106      2 Oct 2022 15:28:28.419    Earth                2216.397            100.000000      2 Oct 2022 14:51:40.272
   2 Oct 2022 16:19:53.433     2 Oct 2022 16:20:01.693     2 Oct 2022 16:56:41.146      2 Oct 2022 16:56:49.469    Earth                2216.036            100.000000      2 Oct 2022 16:20:01.693
   2 Oct 2022 17:48:14.862     2 Oct 2022 17:48:23.130     2 Oct 2022 18:25:02.203      2 Oct 2022 18:25:10.535    Earth                2215.673            100.000000      2 Oct 2022 17:48:23.130
   2 Oct 2022 19:16:36.307     2 Oct 2022 19:16:44.583     2 Oct 2022 19:53:23.277      2 Oct 2022 19:53:31.618    Earth                2215.311            100.000000      2 Oct 2022 19:16:44.583
   2 Oct 2022 20:44:57.767     2 Oct 2022 20:45:06.053     2 Oct 2022 21:21:44.368      2 Oct 2022 21:21:52.717    Earth                2214.949            100.000000      2 Oct 2022 20:45:06.053
   2 Oct 2022 22:13:19.244     2 Oct 2022 22:13:27.538     2 Oct 2022 22:50:05.475      2 Oct 2022 22:50:13.833    Earth                2214.589            100.000000      2 Oct 2022 22:13:27.538
   2 Oct 2022 23:41:40.737     2 Oct 2022 23:41:49.040     3 Oct 2022 00:18:26.599      3 Oct 2022 00:18:34.966    Earth                2214.229            100.000000      2 Oct 2022 23:41:49.040
   3 Oct 2022 01:10:02.246     3 Oct 2022 01:10:10.558     3 Oct 2022 01:46:47.740      3 Oct 2022 01:46:56.116    Earth                2213.870            100.000000      3 Oct 2022 01:10:10.558
   3 Oct 2022 02:38:23.771     3 Oct 2022 02:38:32.091     3 Oct 2022 03:15:08.898      3 Oct 2022 03:15:17.283    Earth                2213.512            100.000000      3 Oct 2022 02:38:32.091
   3 Oct 2022 04:06:45.311     3 Oct 2022 04:06:53.640     3 Oct 2022 04:43:30.074      3 Oct 2022 04:43:38.466    Earth                2213.155            100.000000      3 Oct 2022 04:06:53.640
   3 Oct 2022 05:35:06.867     3 Oct 2022 05:35:15.204     3 Oct 2022 06:11:51.266      3 Oct 2022 06:11:59.667    Earth                2212.800            100.000000      3 Oct 2022 05:35:15.204
   3 Oct 2022 07:03:28.438     3 Oct 2022 07:03:36.784     3 Oct 2022 07:40:12.476      3 Oct 2022 07:40:20.885    Earth                2212.447            100.000000      3 Oct 2022 07:03:36.784
   3 Oct 2022 08:31:50.025     3 Oct 2022 08:31:58.380     3 Oct 2022 09:08:33.702      3 Oct 2022 09:08:42.121    Earth                2212.096            100.000000      3 Oct 2022 08:31:58.380
   3 Oct 2022 10:00:11.627     3 Oct 2022 10:00:19.990     3 Oct 2022 10:36:54.946      3 Oct 2022 10:37:03.373    Earth                2211.746            100.000000      3 Oct 2022 10:00:19.990
   3 Oct 2022 11:28:33.243     3 Oct 2022 11:28:41.615     3 Oct 2022 12:05:16.207      3 Oct 2022 12:05:24.642    Earth                2211.399            100.000000      3 Oct 2022 11:28:41.615
   3 Oct 2022 12:56:54.875     3 Oct 2022 12:57:03.255     3 Oct 2022 13:33:37.485      3 Oct 2022 13:33:45.929    Earth                2211.054            100.000000      3 Oct 2022 12:57:03.255
   3 Oct 2022 14:25:16.521     3 Oct 2022 14:25:24.910     3 Oct 2022 15:01:58.781      3 Oct 2022 15:02:07.233    Earth                2210.712            100.000000      3 Oct 2022 14:25:24.910
   3 Oct 2022 15:53:38.182     3 Oct 2022 15:53:46.579     3 Oct 2022 16:30:20.094      3 Oct 2022 16:30:28.553    Earth                2210.372            100.000000      3 Oct 2022 15:53:46.579
   3 Oct 2022 17:21:59.857     3 Oct 2022 17:22:08.262     3 Oct 2022 17:58:41.423      3 Oct 2022 17:58:49.891    Earth                2210.035            100.000000      3 Oct 2022 17:22:08.262
   3 Oct 2022 18:50:21.546     3 Oct 2022 18:50:29.960     3 Oct 2022 19:27:02.770      3 Oct 2022 19:27:11.247    Earth                2209.701            100.000000      3 Oct 2022 18:50:29.960
   3 Oct 2022 20:18:43.249     3 Oct 2022 20:18:51.671     3 Oct 2022 20:55:24.133      3 Oct 2022 20:55:32.617    Earth                2209.369            100.000000      3 Oct 2022 20:18:51.671
   3 Oct 2022 21:47:04.965     3 Oct 2022 21:47:13.396     3 Oct 2022 22:23:45.515      3 Oct 2022 22:23:54.007    Earth                2209.041            100.000000      3 Oct 2022 21:47:13.396
   3 Oct 2022 23:15:26.696     3 Oct 2022 23:15:35.134     3 Oct 2022 23:52:06.913      3 Oct 2022 23:52:15.413    Earth                2208.717            100.000000      3 Oct 2022 23:15:35.134
   4 Oct 2022 00:43:48.439     4 Oct 2022 00:43:56.886     4 Oct 2022 01:20:28.328      4 Oct 2022 01:20:36.836    Earth                2208.396            100.000000      4 Oct 2022 00:43:56.886
   4 Oct 2022 02:12:10.196     4 Oct 2022 02:12:18.651     4 Oct 2022 02:48:49.760      4 Oct 2022 02:48:58.275    Earth                2208.080            100.000000      4 Oct 2022 02:12:18.651
   4 Oct 2022 03:40:31.965     4 Oct 2022 03:40:40.428     4 Oct 2022 04:17:11.209      4 Oct 2022 04:17:19.732    Earth                2207.767            100.000000      4 Oct 2022 03:40:40.428
   4 Oct 2022 05:08:53.747     4 Oct 2022 05:09:02.218     4 Oct 2022 05:45:32.675      4 Oct 2022 05:45:41.205    Earth                2207.458            100.000000      4 Oct 2022 05:09:02.218
   4 Oct 2022 06:37:15.541     4 Oct 2022 06:37:24.020     4 Oct 2022 07:13:54.158      4 Oct 2022 07:14:02.695    Earth                2207.154            100.000000      4 Oct 2022 06:37:24.020
   4 Oct 2022 08:05:37.348     4 Oct 2022 08:05:45.834     4 Oct 2022 08:42:15.657      4 Oct 2022 08:42:24.201    Earth                2206.853            100.000000      4 Oct 2022 08:05:45.834
   4 Oct 2022 09:33:59.166     4 Oct 2022 09:34:07.660     4 Oct 2022 10:10:37.172      4 Oct 2022 10:10:45.724    Earth                2206.558            100.000000      4 Oct 2022 09:34:07.660
   4 Oct 2022 11:02:20.995     4 Oct 2022 11:02:29.497     4 Oct 2022 11:38:58.704      4 Oct 2022 11:39:07.262    Earth                2206.267            100.000000      4 Oct 2022 11:02:29.497
   4 Oct 2022 12:30:42.836     4 Oct 2022 12:30:51.345     4 Oct 2022 13:07:20.252      4 Oct 2022 13:07:28.817    Earth                2205.981            100.000000      4 Oct 2022 12:30:51.345
   4 Oct 2022 13:59:04.688     4 Oct 2022 13:59:13.205     4 Oct 2022 14:35:41.816      4 Oct 2022 14:35:50.388    Earth                2205.700            100.000000      4 Oct 2022 13:59:13.205
   4 Oct 2022 15:27:26.551     4 Oct 2022 15:27:35.074     4 Oct 2022 16:04:03.396      4 Oct 2022 16:04:11.975    Earth                2205.424            100.000000      4 Oct 2022 15:27:35.074
   4 Oct 2022 16:55:48.424     4 Oct 2022 16:55:56.954     4 Oct 2022 17:32:24.992      4 Oct 2022 17:32:33.577    Earth                2205.154            100.000000      4 Oct 2022 16:55:56.954
   4 Oct 2022 18:24:10.307     4 Oct 2022 18:24:18.844     4 Oct 2022 19:00:46.604      4 Oct 2022 19:00:55.195    Earth                2204.889            100.000000      4 Oct 2022 18:24:18.844
   4 Oct 2022 19:52:32.199     4 Oct 2022 19:52:40.744     4 Oct 2022 20:29:08.231      4 Oct 2022 20:29:16.829    Earth                2204.630            100.000000      4 Oct 2022 19:52:40.744
   4 Oct 2022 21:20:54.101     4 Oct 2022 21:21:02.653     4 Oct 2022 21:57:29.874      4 Oct 2022 21:57:38.477    Earth                2204.376            100.000000      4 Oct 2022 21:21:02.653
   4 Oct 2022 22:49:16.013     4 Oct 2022 22:49:24.571     4 Oct 2022 23:25:51.531      4 Oct 2022 23:26:00.141    Earth                2204.128            100.000000      4 Oct 2022 22:49:24.571
   5 Oct 2022 00:17:37.933     5 Oct 2022 00:17:46.498     5 Oct 2022 00:54:13.204      5 Oct 2022 00:54:21.819    Earth                2203.886            100.000000      5 Oct 2022 00:17:46.498
   5 Oct 2022 01:45:59.861     5 Oct 2022 01:46:08.433     5 Oct 2022 02:22:34.891      5 Oct 2022 02:22:43.512    Earth                2203.651            100.000000      5 Oct 2022 01:46:08.433
   5 Oct 2022 03:14:21.798     5 Oct 2022 03:14:30.376     5 Oct 2022 03:50:56.593      5 Oct 2022 03:51:05.219    Earth                2203.421            100.000000      5 Oct 2022 03:14:30.376
   5 Oct 2022 04:42:43.742     5 Oct 2022 04:42:52.326     5 Oct 2022 05:19:18.309      5 Oct 2022 05:19:26.941    Earth                2203.198            100.000000      5 Oct 2022 04:42:52.326
   5 Oct 2022 06:11:05.694     5 Oct 2022 06:11:14.284     5 Oct 2022 06:47:40.040      5 Oct 2022 06:47:48.676    Earth                2202.982            100.000000      5 Oct 2022 06:11:14.284
   5 Oct 2022 07:39:27.653     5 Oct 2022 07:39:36.249     5 Oct 2022 08:16:01.785      5 Oct 2022 08:16:10.425    Earth                2202.772            100.000000      5 Oct 2022 07:39:36.249
   5 Oct 2022 09:07:49.618     5 Oct 2022 09:07:58.220     5 Oct 2022 09:44:23.541      5 Oct 2022 09:44:32.189    Earth                2202.571            100.000000      5 Oct 2022 09:07:58.220
   5 Oct 2022 10:36:11.592     5 Oct 2022 10:36:20.197     5 Oct 2022 11:12:45.314      5 Oct 2022 11:12:53.963    Earth                2202.371            100.000000      5 Oct 2022 10:36:20.197
   5 Oct 2022 12:04:33.568     5 Oct 2022 12:04:42.181     5 Oct 2022 12:41:07.096      5 Oct 2022 12:41:15.751    Earth                2202.183            100.000000      5 Oct 2022 12:04:42.181
   5 Oct 2022 13:32:55.550     5 Oct 2022 13:33:04.169     5 Oct 2022 14:09:28.893      5 Oct 2022 14:09:37.555    Earth                2202.004            100.000000      5 Oct 2022 13:33:04.169
   5 Oct 2022 15:01:17.540     5 Oct 2022 15:01:26.162     5 Oct 2022 15:37:50.704      5 Oct 2022 15:37:59.369    Earth                2201.829            100.000000      5 Oct 2022 15:01:26.162
   5 Oct 2022 16:29:39.534     5 Oct 2022 16:29:48.161     5 Oct 2022 17:06:12.524      5 Oct 2022 17:06:21.195    Earth                2201.660            100.000000      5 Oct 2022 16:29:48.161
   5 Oct 2022 17:58:01.531     5 Oct 2022 17:58:10.163     5 Oct 2022 18:34:34.361      5 Oct 2022 18:34:43.032    Earth                2201.501            100.000000      5 Oct 2022 17:58:10.163
   5 Oct 2022 19:26:23.532     5 Oct 2022 19:26:32.171     5 Oct 2022 20:02:56.207      5 Oct 2022 20:03:04.879    Earth                2201.346            100.000000      5 Oct 2022 19:26:32.171
   5 Oct 2022 20:54:45.538     5 Oct 2022 20:54:54.179     5 Oct 2022 21:31:18.064      5 Oct 2022 21:31:26.741    Earth                2201.204            100.000000      5 Oct 2022 20:54:54.179
   5 Oct 2022 22:23:07.546     5 Oct 2022 22:23:16.192     5 Oct 2022 22:59:39.932      5 Oct 2022 22:59:48.610    Earth                2201.064            100.000000      5 Oct 2022 22:23:16.192
   5 Oct 2022 23:51:29.557     5 Oct 2022 23:51:38.208     6 Oct 2022 00:28:01.811      6 Oct 2022 00:28:10.495    Earth                2200.937            100.000000      5 Oct 2022 23:51:38.208
   6 Oct 2022 01:19:51.571     6 Oct 2022 01:20:00.225     6 Oct 2022 01:56:23.700      6 Oct 2022 01:56:32.387    Earth                2200.816            100.000000      6 Oct 2022 01:20:00.225
   6 Oct 2022 02:48:13.587     6 Oct 2022 02:48:22.245     6 Oct 2022 03:24:45.600      6 Oct 2022 03:24:54.289    Earth                2200.702            100.000000      6 Oct 2022 02:48:22.245
   6 Oct 2022 04:16:35.604     6 Oct 2022 04:16:44.266     6 Oct 2022 04:53:07.507      6 Oct 2022 04:53:16.198    Earth                2200.594            100.000000      6 Oct 2022 04:16:44.266
   6 Oct 2022 05:44:57.622     6 Oct 2022 05:45:06.287     6 Oct 2022 06:21:29.428      6 Oct 2022 06:21:38.121    Earth                2200.499            100.000000      6 Oct 2022 05:45:06.287
   6 Oct 2022 07:13:19.642     6 Oct 2022 07:13:28.310     6 Oct 2022 07:49:51.354      6 Oct 2022 07:50:00.051    Earth                2200.409            100.000000      6 Oct 2022 07:13:28.310
   6 Oct 2022 08:41:41.661     6 Oct 2022 08:41:50.332     6 Oct 2022 09:18:13.292      6 Oct 2022 09:18:21.989    Earth                2200.328            100.000000      6 Oct 2022 08:41:50.332
   6 Oct 2022 10:10:03.681     6 Oct 2022 10:10:12.355     6 Oct 2022 10:46:35.237      6 Oct 2022 10:46:43.936    Earth                2200.255            100.000000      6 Oct 2022 10:10:12.355
   6 Oct 2022 11:38:25.699     6 Oct 2022 11:38:34.376     6 Oct 2022 12:14:57.190      6 Oct 2022 12:15:05.890    Earth                2200.191            100.000000      6 Oct 2022 11:38:34.376
   6 Oct 2022 13:06:47.717     6 Oct 2022 13:06:56.397     6 Oct 2022 13:43:19.151      6 Oct 2022 13:43:27.850    Earth                2200.132            100.000000      6 Oct 2022 13:06:56.397
   6 Oct 2022 14:35:09.734     6 Oct 2022 14:35:18.416     6 Oct 2022 15:11:41.116      6 Oct 2022 15:11:49.818    Earth                2200.084            100.000000      6 Oct 2022 14:35:18.416
   6 Oct 2022 16:03:31.749     6 Oct 2022 16:03:40.432     6 Oct 2022 16:40:03.093      6 Oct 2022 16:40:11.794    Earth                2200.045            100.000000      6 Oct 2022 16:03:40.432
   6 Oct 2022 17:31:53.762     6 Oct 2022 17:32:02.447     6 Oct 2022 18:08:25.072      6 Oct 2022 18:08:33.775    Earth                2200.013            100.000000      6 Oct 2022 17:32:02.447
   6 Oct 2022 19:00:15.772     6 Oct 2022 19:00:24.459     6 Oct 2022 19:36:47.061      6 Oct 2022 19:36:55.765    Earth                2199.993            100.000000      6 Oct 2022 19:00:24.459
   6 Oct 2022 20:28:37.779     6 Oct 2022 20:28:46.467     6 Oct 2022 21:05:09.054      6 Oct 2022 21:05:17.758    Earth                2199.979            100.000000      6 Oct 2022 20:28:46.467
   6 Oct 2022 21:56:59.783     6 Oct 2022 21:57:08.472     6 Oct 2022 22:33:31.052      6 Oct 2022 22:33:39.756    Earth                2199.973            100.000000      6 Oct 2022 21:57:08.472
   6 Oct 2022 23:25:21.782     6 Oct 2022 23:25:30.473     7 Oct 2022 00:01:53.055      7 Oct 2022 00:02:01.758    Earth                2199.976            100.000000      6 Oct 2022 23:25:30.473
   7 Oct 2022 00:53:43.778     7 Oct 2022 00:53:52.469     7 Oct 2022 01:30:15.060      7 Oct 2022 01:30:23.765    Earth                2199.987            100.000000      7 Oct 2022 00:53:52.469
   7 Oct 2022 02:22:05.769     7 Oct 2022 02:22:14.461     7 Oct 2022 02:58:37.072      7 Oct 2022 02:58:45.776    Earth                2200.007            100.000000      7 Oct 2022 02:22:14.461
   7 Oct 2022 03:50:27.754     7 Oct 2022 03:50:36.447     7 Oct 2022 04:26:59.089      7 Oct 2022 04:27:07.790    Earth                2200.036            100.000000      7 Oct 2022 03:50:36.447
   7 Oct 2022 05:18:49.735     7 Oct 2022 05:18:58.428     7 Oct 2022 05:55:21.105      7 Oct 2022 05:55:29.807    Earth                2200.072            100.000000      7 Oct 2022 05:18:58.428
   7 Oct 2022 06:47:11.709     7 Oct 2022 06:47:20.402     7 Oct 2022 07:23:43.126      7 Oct 2022 07:23:51.824    Earth                2200.116            100.000000      7 Oct 2022 06:47:20.402
   7 Oct 2022 08:15:33.677     7 Oct 2022 08:15:42.370     7 Oct 2022 08:52:05.149      7 Oct 2022 08:52:13.846    Earth                2200.169            100.000000      7 Oct 2022 08:15:42.370
   7 Oct 2022 09:43:55.638     7 Oct 2022 09:44:04.331     7 Oct 2022 10:20:27.177      7 Oct 2022 10:20:35.872    Earth                2200.234            100.000000      7 Oct 2022 09:44:04.331
   7 Oct 2022 11:12:17.593     7 Oct 2022 11:12:26.285     7 Oct 2022 11:48:49.204      7 Oct 2022 11:48:57.897    Earth                2200.305            100.000000      7 Oct 2022 11:12:26.285
   7 Oct 2022 12:40:39.539     7 Oct 2022 12:40:48.230     7 Oct 2022 13:17:11.232      7 Oct 2022 13:17:19.923    Earth                2200.384            100.000000      7 Oct 2022 12:40:48.230
   7 Oct 2022 14:09:01.478     7 Oct 2022 14:09:10.168     7 Oct 2022 14:45:33.261      7 Oct 2022 14:45:41.949    Earth                2200.471            100.000000      7 Oct 2022 14:09:10.168
   7 Oct 2022 15:37:23.409     7 Oct 2022 15:37:32.098     7 Oct 2022 16:13:55.289      7 Oct 2022 16:14:03.976    Earth                2200.567            100.000000      7 Oct 2022 15:37:32.098
   7 Oct 2022 17:05:45.330     7 Oct 2022 17:05:54.018     7 Oct 2022 17:42:17.317      7 Oct 2022 17:42:26.001    Earth                2200.671            100.000000      7 Oct 2022 17:05:54.018
   7 Oct 2022 18:34:07.243     7 Oct 2022 18:34:15.929     7 Oct 2022 19:10:39.345      7 Oct 2022 19:10:48.025    Earth                2200.782            100.000000      7 Oct 2022 18:34:15.929
   7 Oct 2022 20:02:29.147     7 Oct 2022 20:02:37.831     7 Oct 2022 20:39:01.372      7 Oct 2022 20:39:10.049    Earth                2200.902            100.000000      7 Oct 2022 20:02:37.831
   7 Oct 2022 21:30:51.040     7 Oct 2022 21:30:59.723     7 Oct 2022 22:07:23.397      7 Oct 2022 22:07:32.071    Earth                2201.031            100.000000      7 Oct 2022 21:30:59.723
   7 Oct 2022 22:59:12.924     7 Oct 2022 22:59:21.604     7 Oct 2022 23:35:45.421      7 Oct 2022 23:35:54.091    Earth                2201.167            100.000000      7 Oct 2022 22:59:21.604
   8 Oct 2022 00:27:34.797     8 Oct 2022 00:27:43.475     8 Oct 2022 01:04:07.442      8 Oct 2022 01:04:16.108    Earth                2201.312            100.000000      8 Oct 2022 00:27:43.475
   8 Oct 2022 01:55:56.659     8 Oct 2022 01:56:05.334     8 Oct 2022 02:32:29.460      8 Oct 2022 02:32:38.123    Earth                2201.464            100.000000      8 Oct 2022 01:56:05.334
   8 Oct 2022 03:24:18.510     8 Oct 2022 03:24:27.182     8 Oct 2022 04:00:51.475      8 Oct 2022 04:01:00.134    Earth                2201.624            100.000000      8 Oct 2022 03:24:27.182
   8 Oct 2022 04:52:40.349     8 Oct 2022 04:52:49.019     8 Oct 2022 05:29:13.487      8 Oct 2022 05:29:22.141    Earth                2201.792            100.000000      8 Oct 2022 04:52:49.019
   8 Oct 2022 06:21:02.177     8 Oct 2022 06:21:10.843     8 Oct 2022 06:57:35.494      8 Oct 2022 06:57:44.144    Earth                2201.967            100.000000      8 Oct 2022 06:21:10.843
   8 Oct 2022 07:49:23.992     8 Oct 2022 07:49:32.655     8 Oct 2022 08:25:57.497      8 Oct 2022 08:26:06.142    Earth                2202.150            100.000000      8 Oct 2022 07:49:32.655
   8 Oct 2022 09:17:45.795     8 Oct 2022 09:17:54.455     8 Oct 2022 09:54:19.495      8 Oct 2022 09:54:28.135    Earth                2202.340            100.000000      8 Oct 2022 09:17:54.455
   8 Oct 2022 10:46:07.585     8 Oct 2022 10:46:16.241     8 Oct 2022 11:22:41.487      8 Oct 2022 11:22:50.123    Earth                2202.538            100.000000      8 Oct 2022 10:46:16.241
   8 Oct 2022 12:14:29.362     8 Oct 2022 12:14:38.014     8 Oct 2022 12:51:03.474      8 Oct 2022 12:51:12.104    Earth                2202.743            100.000000      8 Oct 2022 12:14:38.014
   8 Oct 2022 13:42:51.125     8 Oct 2022 13:42:59.773     8 Oct 2022 14:19:25.455      8 Oct 2022 14:19:34.080    Earth                2202.955            100.000000      8 Oct 2022 13:42:59.773
   8 Oct 2022 15:11:12.875     8 Oct 2022 15:11:21.519     8 Oct 2022 15:47:47.429      8 Oct 2022 15:47:56.048    Earth                2203.174            100.000000      8 Oct 2022 15:11:21.519
   8 Oct 2022 16:39:34.610     8 Oct 2022 16:39:43.250     8 Oct 2022 17:16:09.396      8 Oct 2022 17:16:18.010    Earth                2203.400            100.000000      8 Oct 2022 16:39:43.250
   8 Oct 2022 18:07:56.332     8 Oct 2022 18:08:04.967     8 Oct 2022 18:44:31.356      8 Oct 2022 18:44:39.964    Earth                2203.632            100.000000      8 Oct 2022 18:08:04.967
   8 Oct 2022 19:36:18.038     8 Oct 2022 19:36:26.669     8 Oct 2022 20:12:53.308      8 Oct 2022 20:13:01.910    Earth                2203.871            100.000000      8 Oct 2022 19:36:26.669
   8 Oct 2022 21:04:39.730     8 Oct 2022 21:04:48.356     8 Oct 2022 21:41:15.252      8 Oct 2022 21:41:23.848    Earth                2204.117            100.000000      8 Oct 2022 21:04:48.356
   8 Oct 2022 22:33:01.407     8 Oct 2022 22:33:10.027     8 Oct 2022 23:09:37.188      8 Oct 2022 23:09:45.777    Earth                2204.370            100.000000      8 Oct 2022 22:33:10.027
   9 Oct 2022 00:01:23.070     9 Oct 2022 00:01:31.684     9 Oct 2022 00:37:59.113      9 Oct 2022 00:38:07.696    Earth                2204.626            100.000000      9 Oct 2022 00:01:31.684
   9 Oct 2022 01:29:44.716     9 Oct 2022 01:29:53.324     9 Oct 2022 02:06:21.030      9 Oct 2022 02:06:29.607    Earth                2204.891            100.000000      9 Oct 2022 01:29:53.324
   9 Oct 2022 02:58:06.345     9 Oct 2022 02:58:14.950     9 Oct 2022 03:34:42.938      9 Oct 2022 03:34:51.507    Earth                2205.163            100.000000      9 Oct 2022 02:58:14.950
   9 Oct 2022 04:26:27.958     9 Oct 2022 04:26:36.557     9 Oct 2022 05:03:04.836      9 Oct 2022 05:03:13.400    Earth                2205.442            100.000000      9 Oct 2022 04:26:36.557
   9 Oct 2022 05:54:49.555     9 Oct 2022 05:54:58.150     9 Oct 2022 06:31:26.723      9 Oct 2022 06:31:35.278    Earth                2205.723            100.000000      9 Oct 2022 05:54:58.150
   9 Oct 2022 07:23:11.138     9 Oct 2022 07:23:19.723     9 Oct 2022 07:59:48.600      9 Oct 2022 07:59:57.149    Earth                2206.011            100.000000      9 Oct 2022 07:23:19.723
   9 Oct 2022 08:51:32.702     9 Oct 2022 08:51:41.283     9 Oct 2022 09:28:10.465      9 Oct 2022 09:28:19.006    Earth                2206.304            100.000000      9 Oct 2022 08:51:41.283
   9 Oct 2022 10:19:54.250     9 Oct 2022 10:20:02.824     9 Oct 2022 10:56:32.316      9 Oct 2022 10:56:40.850    Earth                2206.600            100.000000      9 Oct 2022 10:20:02.824
   9 Oct 2022 11:48:15.781     9 Oct 2022 11:48:24.349     9 Oct 2022 12:24:54.160      9 Oct 2022 12:25:02.687    Earth                2206.906            100.000000      9 Oct 2022 11:48:24.349
   9 Oct 2022 13:16:37.293     9 Oct 2022 13:16:45.854     9 Oct 2022 13:53:15.989      9 Oct 2022 13:53:24.509    Earth                2207.216            100.000000      9 Oct 2022 13:16:45.854
   9 Oct 2022 14:44:58.789     9 Oct 2022 14:45:07.344     9 Oct 2022 15:21:37.806      9 Oct 2022 15:21:46.319    Earth                2207.529            100.000000      9 Oct 2022 14:45:07.344
   9 Oct 2022 16:13:20.268     9 Oct 2022 16:13:28.816     9 Oct 2022 16:49:59.611      9 Oct 2022 16:50:08.115    Earth                2207.847            100.000000      9 Oct 2022 16:13:28.816
   9 Oct 2022 17:41:41.729     9 Oct 2022 17:41:50.270     9 Oct 2022 18:18:21.402      9 Oct 2022 18:18:29.899    Earth                2208.170            100.000000      9 Oct 2022 17:41:50.270
   9 Oct 2022 19:10:03.172     9 Oct 2022 19:10:11.706     9 Oct 2022 19:46:43.180      9 Oct 2022 19:46:51.668    Earth                2208.496            100.000000      9 Oct 2022 19:10:11.706
   9 Oct 2022 20:38:24.597     9 Oct 2022 20:38:33.124     9 Oct 2022 21:15:04.944      9 Oct 2022 21:15:13.425    Earth                2208.827            100.000000      9 Oct 2022 20:38:33.124
   9 Oct 2022 22:06:46.004     9 Oct 2022 22:06:54.524     9 Oct 2022 22:43:26.694      9 Oct 2022 22:43:35.167    Earth                2209.162            100.000000      9 Oct 2022 22:06:54.524
   9 Oct 2022 23:35:07.393     9 Oct 2022 23:35:15.905    10 Oct 2022 00:11:48.430     10 Oct 2022 00:11:56.894    Earth                2209.501            100.000000      9 Oct 2022 23:35:15.905
  10 Oct 2022 01:03:28.764    10 Oct 2022 01:03:37.268    10 Oct 2022 01:40:10.151     10 Oct 2022 01:40:18.607    Earth                2209.843            100.000000     10 Oct 2022 01:03:37.268
  10 Oct 2022 02:31:50.116    10 Oct 2022 02:31:58.613    10 Oct 2022 03:08:31.857     10 Oct 2022 03:08:40.305    Earth                2210.189            100.000000     10 Oct 2022 02:31:58.613
  10 Oct 2022 04:00:11.449    10 Oct 2022 04:00:19.939    10 Oct 2022 04:36:53.549     10 Oct 2022 04:37:01.988    Earth                2210.539            100.000000     10 Oct 2022 04:00:19.939
  10 Oct 2022 05:28:32.764    10 Oct 2022 05:28:41.246    10 Oct 2022 06:05:15.225     10 Oct 2022 06:05:23.656    Earth                2210.891            100.000000     10 Oct 2022 05:28:41.246
  10 Oct 2022 06:56:54.061    10 Oct 2022 06:57:02.535    10 Oct 2022 07:33:36.885     10 Oct 2022 07:33:45.308    Earth                2211.247            100.000000     10 Oct 2022 06:57:02.535
  10 Oct 2022 08:25:15.338    10 Oct 2022 08:25:23.804    10 Oct 2022 09:01:58.529     10 Oct 2022 09:02:06.943    Earth                2211.605            100.000000     10 Oct 2022 08:25:23.804
  10 Oct 2022 09:53:36.597    10 Oct 2022 09:53:45.055    10 Oct 2022 10:30:20.158     10 Oct 2022 10:30:28.563    Earth                2211.966            100.000000     10 Oct 2022 09:53:45.055
  10 Oct 2022 11:21:57.837    10 Oct 2022 11:22:06.287    10 Oct 2022 11:58:41.768     10 Oct 2022 11:58:50.164    Earth                2212.327            100.000000     10 Oct 2022 11:22:06.287
  10 Oct 2022 12:50:19.058    10 Oct 2022 12:50:27.500    10 Oct 2022 13:27:03.363     10 Oct 2022 13:27:11.751    Earth                2212.693            100.000000     10 Oct 2022 12:50:27.500
  10 Oct 2022 14:18:40.260    10 Oct 2022 14:18:48.694    10 Oct 2022 14:55:24.942     10 Oct 2022 14:55:33.321    Earth                2213.061            100.000000     10 Oct 2022 14:18:48.694
  10 Oct 2022 15:47:01.444    10 Oct 2022 15:47:09.869    10 Oct 2022 16:23:46.504     10 Oct 2022 16:23:54.874    Earth                2213.431            100.000000     10 Oct 2022 15:47:09.869
  10 Oct 2022 17:15:22.608    10 Oct 2022 17:15:31.025    10 Oct 2022 17:52:08.048     10 Oct 2022 17:52:16.410    Earth                2213.802            100.000000     10 Oct 2022 17:15:31.025
  10 Oct 2022 18:43:43.753    10 Oct 2022 18:43:52.162    10 Oct 2022 19:20:29.576     10 Oct 2022 19:20:37.929    Earth                2214.175            100.000000     10 Oct 2022 18:43:52.162
  10 Oct 2022 20:12:04.879    10 Oct 2022 20:12:13.280    10 Oct 2022 20:48:51.086     10 Oct 2022 20:48:59.430    Earth                2214.550            100.000000     10 Oct 2022 20:12:13.280
  10 Oct 2022 21:40:25.987    10 Oct 2022 21:40:34.379    10 Oct 2022 22:17:12.578     10 Oct 2022 22:17:20.913    Earth                2214.926            100.000000     10 Oct 2022 21:40:34.379
  10 Oct 2022 23:08:47.075    10 Oct 2022 23:08:55.458    10 Oct 2022 23:45:34.052     10 Oct 2022 23:45:42.378    Earth                2215.303            100.000000     10 Oct 2022 23:08:55.458
  11 Oct 2022 00:37:08.144    11 Oct 2022 00:37:16.519    11 Oct 2022 01:13:55.508     11 Oct 2022 01:14:03.826    Earth                2215.681            100.000000     11 Oct 2022 00:37:16.519
  11 Oct 2022 02:05:29.195    11 Oct 2022 02:05:37.561    11 Oct 2022 02:42:16.946     11 Oct 2022 02:42:25.255    Earth                2216.060            100.000000     11 Oct 2022 02:05:37.561
  11 Oct 2022 03:33:50.226    11 Oct 2022 03:33:58.584    11 Oct 2022 04:10:38.366     11 Oct 2022 04:10:46.666    Earth                2216.440            100.000000     11 Oct 2022 03:33:58.584
  11 Oct 2022 05:02:11.239    11 Oct 2022 05:02:19.588    11 Oct 2022 05:38:59.768     11 Oct 2022 05:39:08.058    Earth                2216.820            100.000000     11 Oct 2022 05:02:19.588
  11 Oct 2022 06:30:32.232    11 Oct 2022 06:30:40.573    11 Oct 2022 07:07:21.150     11 Oct 2022 07:07:29.432    Earth                2217.200            100.000000     11 Oct 2022 06:30:40.573
  11 Oct 2022 07:58:53.207    11 Oct 2022 07:59:01.539    11 Oct 2022 08:35:42.515     11 Oct 2022 08:35:50.787    Earth                2217.580            100.000000     11 Oct 2022 07:59:01.539
  11 Oct 2022 09:27:14.164    11 Oct 2022 09:27:22.487    11 Oct 2022 10:04:03.860     11 Oct 2022 10:04:12.124    Earth                2217.960            100.000000     11 Oct 2022 09:27:22.487
  11 Oct 2022 10:55:35.101    11 Oct 2022 10:55:43.416    11 Oct 2022 11:32:25.186     11 Oct 2022 11:32:33.441    Earth                2218.340            100.000000     11 Oct 2022 10:55:43.416
  11 Oct 2022 12:23:56.020    11 Oct 2022 12:24:04.326    11 Oct 2022 13:00:46.494     11 Oct 2022 13:00:54.740    Earth                2218.719            100.000000     11 Oct 2022 12:24:04.326
  11 Oct 2022 13:52:16.921    11 Oct 2022 13:52:25.218    11 Oct 2022 14:29:07.782     11 Oct 2022 14:29:16.019    Earth                2219.098            100.000000     11 Oct 2022 13:52:25.218
  11 Oct 2022 15:20:37.803    11 Oct 2022 15:20:46.092    11 Oct 2022 15:57:29.051     11 Oct 2022 15:57:37.279    Earth                2219.476            100.000000     11 Oct 2022 15:20:46.092
  11 Oct 2022 16:48:58.667    11 Oct 2022 16:49:06.947    11 Oct 2022 17:25:50.301     11 Oct 2022 17:25:58.520    Earth                2219.854            100.000000     11 Oct 2022 16:49:06.947
  11 Oct 2022 18:17:19.512    11 Oct 2022 18:17:27.784    11 Oct 2022 18:54:11.531     11 Oct 2022 18:54:19.742    Earth                2220.230            100.000000     11 Oct 2022 18:17:27.784
  11 Oct 2022 19:45:40.340    11 Oct 2022 19:45:48.603    11 Oct 2022 20:22:32.743     11 Oct 2022 20:22:40.945    Earth                2220.605            100.000000     11 Oct 2022 19:45:48.603
  11 Oct 2022 21:14:01.149    11 Oct 2022 21:14:09.404    11 Oct 2022 21:50:53.934     11 Oct 2022 21:51:02.128    Earth                2220.978            100.000000     11 Oct 2022 21:14:09.404
  11 Oct 2022 22:42:21.941    11 Oct 2022 22:42:30.187    11 Oct 2022 23:19:15.107     11 Oct 2022 23:19:23.291    Earth                2221.350            100.000000     11 Oct 2022 22:42:30.187
  12 Oct 2022 00:10:42.715    12 Oct 2022 00:10:50.952    12 Oct 2022 00:47:36.259     12 Oct 2022 00:47:44.435    Earth                2221.721            100.000000     12 Oct 2022 00:10:50.952
  12 Oct 2022 01:39:03.471    12 Oct 2022 01:39:11.699    12 Oct 2022 02:15:57.392     12 Oct 2022 02:16:05.560    Earth                2222.089            100.000000     12 Oct 2022 01:39:11.699
  12 Oct 2022 03:07:24.209    12 Oct 2022 03:07:32.429    12 Oct 2022 03:44:18.506     12 Oct 2022 03:44:26.665    Earth                2222.456            100.000000     12 Oct 2022 03:07:32.429
  12 Oct 2022 04:35:44.933    12 Oct 2022 04:35:53.142    12 Oct 2022 05:12:39.603     12 Oct 2022 05:12:47.750    Earth                2222.817            100.000000     12 Oct 2022 04:35:53.142
  12 Oct 2022 06:04:05.637    12 Oct 2022 06:04:13.840    12 Oct 2022 06:41:00.677     12 Oct 2022 06:41:08.816    Earth                2223.180            100.000000     12 Oct 2022 06:04:13.840
  12 Oct 2022 07:32:26.321    12 Oct 2022 07:32:34.518    12 Oct 2022 08:09:21.729     12 Oct 2022 08:09:29.865    Earth                2223.544            100.000000     12 Oct 2022 07:32:34.518
  12 Oct 2022 09:00:46.993    12 Oct 2022 09:00:55.178    12 Oct 2022 09:37:42.766     12 Oct 2022 09:37:50.890    Earth                2223.896            100.000000     12 Oct 2022 09:00:55.178
  12 Oct 2022 10:29:07.646    12 Oct 2022 10:29:15.825    12 Oct 2022 11:06:03.782     12 Oct 2022 11:06:11.899    Earth                2224.253            100.000000     12 Oct 2022 10:29:15.825
  12 Oct 2022 11:57:28.280    12 Oct 2022 11:57:36.453    12 Oct 2022 12:34:24.778     12 Oct 2022 12:34:32.884    Earth                2224.604            100.000000     12 Oct 2022 11:57:36.453
  12 Oct 2022 13:25:48.900    12 Oct 2022 13:25:57.062    12 Oct 2022 14:02:45.751     12 Oct 2022 14:02:53.852    Earth                2224.952            100.000000     12 Oct 2022 13:25:57.062
  12 Oct 2022 14:54:09.504    12 Oct 2022 14:54:17.658    12 Oct 2022 15:31:06.707     12 Oct 2022 15:31:14.801    Earth                2225.298            100.000000     12 Oct 2022 14:54:17.658
  12 Oct 2022 16:22:30.091    12 Oct 2022 16:22:38.237    12 Oct 2022 16:59:27.645     12 Oct 2022 16:59:35.730    Earth                2225.639            100.000000     12 Oct 2022 16:22:38.237
  12 Oct 2022 17:50:50.662    12 Oct 2022 17:50:58.801    12 Oct 2022 18:27:48.562     12 Oct 2022 18:27:56.640    Earth                2225.978            100.000000     12 Oct 2022 17:50:58.801
  12 Oct 2022 19:19:11.218    12 Oct 2022 19:19:19.348    12 Oct 2022 19:56:09.460     12 Oct 2022 19:56:17.530    Earth                2226.312            100.000000     12 Oct 2022 19:19:19.348
  12 Oct 2022 20:47:31.758    12 Oct 2022 20:47:39.881    12 Oct 2022 21:24:30.339     12 Oct 2022 21:24:38.401    Earth                2226.643            100.000000     12 Oct 2022 20:47:39.881
  12 Oct 2022 22:15:52.283    12 Oct 2022 22:16:00.398    12 Oct 2022 22:52:51.198     12 Oct 2022 22:52:59.253    Earth                2226.970            100.000000     12 Oct 2022 22:16:00.398
  12 Oct 2022 23:44:12.792    12 Oct 2022 23:44:20.899    13 Oct 2022 00:21:12.038     13 Oct 2022 00:21:20.086    Earth                2227.293            100.000000     12 Oct 2022 23:44:20.899
  13 Oct 2022 01:12:33.287    13 Oct 2022 01:12:41.386    13 Oct 2022 01:49:32.858     13 Oct 2022 01:49:40.899    Earth                2227.612            100.000000     13 Oct 2022 01:12:41.386
  13 Oct 2022 02:40:53.766    13 Oct 2022 02:41:01.858    13 Oct 2022 03:17:53.660     13 Oct 2022 03:18:01.693    Earth                2227.927            100.000000     13 Oct 2022 02:41:01.858
  13 Oct 2022 04:09:14.232    13 Oct 2022 04:09:22.316    13 Oct 2022 04:46:14.442     13 Oct 2022 04:46:22.468    Earth                2228.237            100.000000     13 Oct 2022 04:09:22.316
  13 Oct 2022 05:37:34.682    13 Oct 2022 05:37:42.759    13 Oct 2022 06:14:35.205     13 Oct 2022 06:14:43.225    Earth                2228.543            100.000000     13 Oct 2022 05:37:42.759
  13 Oct 2022 07:05:55.119    13 Oct 2022 07:06:03.189    13 Oct 2022 07:42:55.950     13 Oct 2022 07:43:03.962    Earth                2228.844            100.000000     13 Oct 2022 07:06:03.189
  13 Oct 2022 08:34:15.541    13 Oct 2022 08:34:23.604    13 Oct 2022 09:11:16.675     13 Oct 2022 09:11:24.681    Earth                2229.140            100.000000     13 Oct 2022 08:34:23.604
  13 Oct 2022 10:02:35.950    13 Oct 2022 10:02:44.006    13 Oct 2022 10:39:37.382     13 Oct 2022 10:39:45.381    Earth                2229.431            100.000000     13 Oct 2022 10:02:44.006
  13 Oct 2022 11:30:56.345    13 Oct 2022 11:31:04.394    13 Oct 2022 12:07:58.070     13 Oct 2022 12:08:06.063    Earth                2229.718            100.000000     13 Oct 2022 11:31:04.394
  13 Oct 2022 12:59:16.727    13 Oct 2022 12:59:24.769    13 Oct 2022 13:36:18.740     13 Oct 2022 13:36:26.726    Earth                2229.999            100.000000     13 Oct 2022 12:59:24.769
  13 Oct 2022 14:27:37.096    13 Oct 2022 14:27:45.131    13 Oct 2022 15:04:39.391     13 Oct 2022 15:04:47.370    Earth                2230.275            100.000000     13 Oct 2022 14:27:45.131
  13 Oct 2022 15:55:57.452    13 Oct 2022 15:56:05.481    13 Oct 2022 16:33:00.023     13 Oct 2022 16:33:07.997    Earth                2230.545            100.000000     13 Oct 2022 15:56:05.481
  13 Oct 2022 17:24:17.795    13 Oct 2022 17:24:25.817    13 Oct 2022 18:01:20.638     13 Oct 2022 18:01:28.605    Earth                2230.811            100.000000     13 Oct 2022 17:24:25.817
  13 Oct 2022 18:52:38.126    13 Oct 2022 18:52:46.142    13 Oct 2022 19:29:41.234     13 Oct 2022 19:29:49.196    Earth                2231.070            100.000000     13 Oct 2022 18:52:46.142
  13 Oct 2022 20:20:58.445    13 Oct 2022 20:21:06.455    13 Oct 2022 20:58:01.812     13 Oct 2022 20:58:09.768    Earth                2231.324            100.000000     13 Oct 2022 20:21:06.455
  13 Oct 2022 21:49:18.751    13 Oct 2022 21:49:26.755    13 Oct 2022 22:26:22.373     13 Oct 2022 22:26:30.323    Earth                2231.572            100.000000     13 Oct 2022 21:49:26.755
  13 Oct 2022 23:17:39.047    13 Oct 2022 23:17:47.045    13 Oct 2022 23:54:42.916     13 Oct 2022 23:54:50.861    Earth                2231.814            100.000000     13 Oct 2022 23:17:47.045
  14 Oct 2022 00:45:59.330    14 Oct 2022 00:46:07.322    14 Oct 2022 01:23:03.441     14 Oct 2022 01:23:11.380    Earth                2232.050            100.000000     14 Oct 2022 00:46:07.322
  14 Oct 2022 02:14:19.603    14 Oct 2022 02:14:27.589    14 Oct 2022 02:51:23.949     14 Oct 2022 02:51:31.883    Earth                2232.280            100.000000     14 Oct 2022 02:14:27.589
  14 Oct 2022 03:42:39.865    14 Oct 2022 03:42:47.845    14 Oct 2022 04:19:44.439     14 Oct 2022 04:19:52.369    Earth                2232.504            100.000000     14 Oct 2022 03:42:47.845
  14 Oct 2022 05:11:00.116    14 Oct 2022 05:11:08.091    14 Oct 2022 05:48:04.913     14 Oct 2022 05:48:12.837    Earth                2232.721            100.000000     14 Oct 2022 05:11:08.091
  14 Oct 2022 06:39:20.356    14 Oct 2022 06:39:28.326    14 Oct 2022 07:16:25.369     14 Oct 2022 07:16:33.289    Earth                2232.932            100.000000     14 Oct 2022 06:39:28.326
  14 Oct 2022 08:07:40.587    14 Oct 2022 08:07:48.552    14 Oct 2022 08:44:45.809     14 Oct 2022 08:44:53.723    Earth                2233.137            100.000000     14 Oct 2022 08:07:48.552
  14 Oct 2022 09:36:00.812    14 Oct 2022 09:36:08.767    14 Oct 2022 10:13:06.232     14 Oct 2022 10:13:14.142    Earth                2233.329            100.000000     14 Oct 2022 09:36:08.767
  14 Oct 2022 11:04:21.018    14 Oct 2022 11:04:28.973    14 Oct 2022 11:41:26.638     14 Oct 2022 11:41:34.544    Earth                2233.525            100.000000     14 Oct 2022 11:04:28.973
  14 Oct 2022 12:32:41.220    14 Oct 2022 12:32:49.174    14 Oct 2022 13:09:47.028     14 Oct 2022 13:09:54.930    Earth                2233.710            100.000000     14 Oct 2022 12:32:49.174
  14 Oct 2022 14:01:01.416    14 Oct 2022 14:01:09.358    14 Oct 2022 14:38:07.402     14 Oct 2022 14:38:15.300    Earth                2233.883            100.000000     14 Oct 2022 14:01:09.358
  14 Oct 2022 15:29:21.600    14 Oct 2022 15:29:29.537    14 Oct 2022 16:06:27.760     14 Oct 2022 16:06:35.654    Earth                2234.054            100.000000     14 Oct 2022 15:29:29.537
  14 Oct 2022 16:57:41.771    14 Oct 2022 16:57:49.711    14 Oct 2022 17:34:48.102     14 Oct 2022 17:34:55.992    Earth                2234.221            100.000000     14 Oct 2022 16:57:49.711
  14 Oct 2022 18:26:01.938    14 Oct 2022 18:26:09.874    14 Oct 2022 19:03:08.428     14 Oct 2022 19:03:16.315    Earth                2234.377            100.000000     14 Oct 2022 18:26:09.874
  14 Oct 2022 19:54:22.097    14 Oct 2022 19:54:30.028    14 Oct 2022 20:31:28.739     14 Oct 2022 20:31:36.622    Earth                2234.525            100.000000     14 Oct 2022 19:54:30.028
  14 Oct 2022 21:22:42.249    14 Oct 2022 21:22:50.173    14 Oct 2022 21:59:49.035     14 Oct 2022 21:59:56.915    Earth                2234.666            100.000000     14 Oct 2022 21:22:50.173
  14 Oct 2022 22:51:02.394    14 Oct 2022 22:51:10.313    14 Oct 2022 23:28:09.316     14 Oct 2022 23:28:17.193    Earth                2234.798            100.000000     14 Oct 2022 22:51:10.313
  15 Oct 2022 00:19:22.533    15 Oct 2022 00:19:30.445    15 Oct 2022 00:56:29.582     15 Oct 2022 00:56:37.455    Earth                2234.922            100.000000     15 Oct 2022 00:19:30.445
  15 Oct 2022 01:47:42.660    15 Oct 2022 01:47:50.574    15 Oct 2022 02:24:49.837     15 Oct 2022 02:24:57.704    Earth                2235.044            100.000000     15 Oct 2022 01:47:50.574
  15 Oct 2022 03:16:02.785    15 Oct 2022 03:16:10.693    15 Oct 2022 03:53:10.069     15 Oct 2022 03:53:17.940    Earth                2235.155            100.000000     15 Oct 2022 03:16:10.693
  15 Oct 2022 04:44:22.902    15 Oct 2022 04:44:30.809    15 Oct 2022 05:21:30.294     15 Oct 2022 05:21:38.161    Earth                2235.260            100.000000     15 Oct 2022 04:44:30.809
  15 Oct 2022 06:12:43.012    15 Oct 2022 06:12:50.917    15 Oct 2022 06:49:50.502     15 Oct 2022 06:49:58.366    Earth                2235.354            100.000000     15 Oct 2022 06:12:50.917
  15 Oct 2022 07:41:03.117    15 Oct 2022 07:41:11.019    15 Oct 2022 08:18:10.694     15 Oct 2022 08:18:18.556    Earth                2235.439            100.000000     15 Oct 2022 07:41:11.019
  15 Oct 2022 09:09:23.213    15 Oct 2022 09:09:31.115    15 Oct 2022 09:46:30.875     15 Oct 2022 09:46:38.735    Earth                2235.522            100.000000     15 Oct 2022 09:09:31.115
  15 Oct 2022 10:37:43.307    15 Oct 2022 10:37:51.204    15 Oct 2022 11:14:51.045     15 Oct 2022 11:14:58.901    Earth                2235.594            100.000000     15 Oct 2022 10:37:51.204
  15 Oct 2022 12:06:03.395    15 Oct 2022 12:06:11.294    15 Oct 2022 12:43:11.196     15 Oct 2022 12:43:19.055    Earth                2235.660            100.000000     15 Oct 2022 12:06:11.294
  15 Oct 2022 13:34:23.484    15 Oct 2022 13:34:31.372    15 Oct 2022 14:11:31.337     15 Oct 2022 14:11:39.193    Earth                2235.709            100.000000     15 Oct 2022 13:34:31.372
  15 Oct 2022 15:02:43.564    15 Oct 2022 15:02:51.455    15 Oct 2022 15:39:51.465     15 Oct 2022 15:39:59.320    Earth                2235.756            100.000000     15 Oct 2022 15:02:51.455
  15 Oct 2022 16:31:03.640    15 Oct 2022 16:31:11.529    15 Oct 2022 17:08:11.581     15 Oct 2022 17:08:19.434    Earth                2235.794            100.000000     15 Oct 2022 16:31:11.529
  15 Oct 2022 17:59:23.712    15 Oct 2022 17:59:31.600    15 Oct 2022 18:36:31.684     15 Oct 2022 18:36:39.537    Earth                2235.824            100.000000     15 Oct 2022 17:59:31.600
  15 Oct 2022 19:27:43.781    15 Oct 2022 19:27:51.667    15 Oct 2022 20:04:51.775     15 Oct 2022 20:04:59.627    Earth                2235.846            100.000000     15 Oct 2022 19:27:51.667
  15 Oct 2022 20:56:03.847    15 Oct 2022 20:56:11.732    15 Oct 2022 21:33:11.854     15 Oct 2022 21:33:19.706    Earth                2235.859            100.000000     15 Oct 2022 20:56:11.732
  15 Oct 2022 22:24:23.910    15 Oct 2022 22:24:31.794    15 Oct 2022 23:01:31.922     15 Oct 2022 23:01:39.773    Earth                2235.863            100.000000     15 Oct 2022 22:24:31.794
