Satélites/Practica 1/MEO Eclipse Summary.txt

                                                                                                                                                                                4 Oct 2022 20:08:22
Satellite-MEO


Penumbra Start Time (UTCG)     Umbra Start Time (UTCG)     Umbra Stop Time (UTCG)     Penumbra Stop Time (UTCG)    Obstruction    Duration (sec)    Max Percent Shadow    Time of Max Shadow (UTCG)
--------------------------    ------------------------    ------------------------    -------------------------    -----------    --------------    ------------------    -------------------------
                   No Data    27 Sep 2022 10:00:00.000    27 Sep 2022 10:26:00.025     27 Sep 2022 10:26:30.837    Earth                1590.837            100.000000     27 Sep 2022 10:00:00.000
  27 Sep 2022 15:29:28.645    27 Sep 2022 15:29:59.461    27 Sep 2022 16:13:44.021     27 Sep 2022 16:14:14.835    Earth                2686.190            100.000000     27 Sep 2022 15:29:59.461
  27 Sep 2022 21:17:12.675    27 Sep 2022 21:17:43.494    27 Sep 2022 22:01:28.017     27 Sep 2022 22:01:58.832    Earth                2686.157            100.000000     27 Sep 2022 21:17:43.494
  28 Sep 2022 03:04:56.708    28 Sep 2022 03:05:27.530    28 Sep 2022 03:49:12.009     28 Sep 2022 03:49:42.829    Earth                2686.121            100.000000     28 Sep 2022 03:05:27.530
  28 Sep 2022 08:52:40.745    28 Sep 2022 08:53:11.569    28 Sep 2022 09:36:56.008     28 Sep 2022 09:37:26.831    Earth                2686.086            100.000000     28 Sep 2022 08:53:11.569
  28 Sep 2022 14:40:24.782    28 Sep 2022 14:40:55.609    28 Sep 2022 15:24:40.008     28 Sep 2022 15:25:10.833    Earth                2686.051            100.000000     28 Sep 2022 14:40:55.609
  28 Sep 2022 20:28:08.821    28 Sep 2022 20:28:39.651    28 Sep 2022 21:12:24.011     28 Sep 2022 21:12:54.839    Earth                2686.017            100.000000     28 Sep 2022 20:28:39.651
  29 Sep 2022 02:15:52.863    29 Sep 2022 02:16:23.695    29 Sep 2022 03:00:08.010     29 Sep 2022 03:00:38.842    Earth                2685.979            100.000000     29 Sep 2022 02:16:23.695
  29 Sep 2022 08:03:36.906    29 Sep 2022 08:04:07.741    29 Sep 2022 08:47:52.013     29 Sep 2022 08:48:22.847    Earth                2685.940            100.000000     29 Sep 2022 08:04:07.741
  29 Sep 2022 13:51:20.952    29 Sep 2022 13:51:51.789    29 Sep 2022 14:35:36.019     29 Sep 2022 14:36:06.854    Earth                2685.902            100.000000     29 Sep 2022 13:51:51.789
  29 Sep 2022 19:39:04.999    29 Sep 2022 19:39:35.839    29 Sep 2022 20:23:20.022     29 Sep 2022 20:23:50.861    Earth                2685.862            100.000000     29 Sep 2022 19:39:35.839
  30 Sep 2022 01:26:49.048    30 Sep 2022 01:27:19.891    30 Sep 2022 02:11:04.029     30 Sep 2022 02:11:34.870    Earth                2685.822            100.000000     30 Sep 2022 01:27:19.891
  30 Sep 2022 07:14:33.099    30 Sep 2022 07:15:03.945    30 Sep 2022 07:58:48.036     30 Sep 2022 07:59:18.880    Earth                2685.781            100.000000     30 Sep 2022 07:15:03.945
  30 Sep 2022 13:02:17.152    30 Sep 2022 13:02:48.001    30 Sep 2022 13:46:32.045     30 Sep 2022 13:47:02.892    Earth                2685.739            100.000000     30 Sep 2022 13:02:48.001
  30 Sep 2022 18:50:01.208    30 Sep 2022 18:50:32.058    30 Sep 2022 19:34:16.055     30 Sep 2022 19:34:46.904    Earth                2685.697            100.000000     30 Sep 2022 18:50:32.058
   1 Oct 2022 00:37:45.265     1 Oct 2022 00:38:16.118     1 Oct 2022 01:22:00.065      1 Oct 2022 01:22:30.920    Earth                2685.655            100.000000      1 Oct 2022 00:38:16.118
   1 Oct 2022 06:25:29.322     1 Oct 2022 06:26:00.180     1 Oct 2022 07:09:44.080      1 Oct 2022 07:10:14.935    Earth                2685.613            100.000000      1 Oct 2022 06:26:00.180
   1 Oct 2022 12:13:13.384     1 Oct 2022 12:13:44.244     1 Oct 2022 12:57:28.090      1 Oct 2022 12:57:58.948    Earth                2685.564            100.000000      1 Oct 2022 12:13:44.244
   1 Oct 2022 18:00:57.447     1 Oct 2022 18:01:28.309     1 Oct 2022 18:45:12.105      1 Oct 2022 18:45:42.965    Earth                2685.518            100.000000      1 Oct 2022 18:01:28.309
   1 Oct 2022 23:48:41.512     1 Oct 2022 23:49:12.377     2 Oct 2022 00:32:56.120      2 Oct 2022 00:33:26.985    Earth                2685.473            100.000000      1 Oct 2022 23:49:12.377
   2 Oct 2022 05:36:25.581     2 Oct 2022 05:36:56.446     2 Oct 2022 06:20:40.138      2 Oct 2022 06:21:11.005    Earth                2685.424            100.000000      2 Oct 2022 05:36:56.446
   2 Oct 2022 11:24:09.647     2 Oct 2022 11:24:40.518     2 Oct 2022 12:08:24.153      2 Oct 2022 12:08:55.024    Earth                2685.377            100.000000      2 Oct 2022 11:24:40.518
   2 Oct 2022 17:11:53.717     2 Oct 2022 17:12:24.591     2 Oct 2022 17:56:08.171      2 Oct 2022 17:56:39.045    Earth                2685.327            100.000000      2 Oct 2022 17:12:24.591
   2 Oct 2022 22:59:37.790     2 Oct 2022 23:00:08.666     2 Oct 2022 23:43:52.193      2 Oct 2022 23:44:23.066    Earth                2685.276            100.000000      2 Oct 2022 23:00:08.666
   3 Oct 2022 04:47:21.864     3 Oct 2022 04:47:52.743     3 Oct 2022 05:31:36.211      3 Oct 2022 05:32:07.089    Earth                2685.225            100.000000      3 Oct 2022 04:47:52.743
   3 Oct 2022 10:35:05.940     3 Oct 2022 10:35:36.822     3 Oct 2022 11:19:20.230      3 Oct 2022 11:19:51.112    Earth                2685.172            100.000000      3 Oct 2022 10:35:36.822
   3 Oct 2022 16:22:50.018     3 Oct 2022 16:23:20.903     3 Oct 2022 17:07:04.254      3 Oct 2022 17:07:35.139    Earth                2685.121            100.000000      3 Oct 2022 16:23:20.903
   3 Oct 2022 22:10:34.098     3 Oct 2022 22:11:04.986     3 Oct 2022 22:54:48.278      3 Oct 2022 22:55:19.165    Earth                2685.067            100.000000      3 Oct 2022 22:11:04.986
   4 Oct 2022 03:58:18.180     4 Oct 2022 03:58:49.071     4 Oct 2022 04:42:32.298      4 Oct 2022 04:43:03.188    Earth                2685.009            100.000000      4 Oct 2022 03:58:49.071
   4 Oct 2022 09:46:02.263     4 Oct 2022 09:46:33.157     4 Oct 2022 10:30:16.326      4 Oct 2022 10:30:47.218    Earth                2684.955            100.000000      4 Oct 2022 09:46:33.157
   4 Oct 2022 15:33:46.349     4 Oct 2022 15:34:17.246     4 Oct 2022 16:18:00.349      4 Oct 2022 16:18:31.244    Earth                2684.896            100.000000      4 Oct 2022 15:34:17.246
   4 Oct 2022 21:21:30.436     4 Oct 2022 21:22:01.336     4 Oct 2022 22:05:44.376      4 Oct 2022 22:06:15.276    Earth                2684.840            100.000000      4 Oct 2022 21:22:01.336
   5 Oct 2022 03:09:14.526     5 Oct 2022 03:09:45.429     5 Oct 2022 03:53:28.406      5 Oct 2022 03:53:59.305    Earth                2684.780            100.000000      5 Oct 2022 03:09:45.429
   5 Oct 2022 08:56:58.617     5 Oct 2022 08:57:29.523     5 Oct 2022 09:41:12.434      5 Oct 2022 09:41:43.336    Earth                2684.719            100.000000      5 Oct 2022 08:57:29.523
   5 Oct 2022 14:44:42.711     5 Oct 2022 14:45:13.620     5 Oct 2022 15:28:56.464      5 Oct 2022 15:29:27.372    Earth                2684.661            100.000000      5 Oct 2022 14:45:13.620
   5 Oct 2022 20:32:26.806     5 Oct 2022 20:32:57.718     5 Oct 2022 21:16:40.491      5 Oct 2022 21:17:11.402    Earth                2684.597            100.000000      5 Oct 2022 20:32:57.718
   6 Oct 2022 02:20:10.903     6 Oct 2022 02:20:41.818     6 Oct 2022 03:04:24.522      6 Oct 2022 03:04:55.437    Earth                2684.533            100.000000      6 Oct 2022 02:20:41.818
   6 Oct 2022 08:07:55.003     6 Oct 2022 08:08:25.921     6 Oct 2022 08:52:08.554      6 Oct 2022 08:52:39.472    Earth                2684.469            100.000000      6 Oct 2022 08:08:25.921
   6 Oct 2022 13:55:39.107     6 Oct 2022 13:56:10.028     6 Oct 2022 14:39:52.590      6 Oct 2022 14:40:23.510    Earth                2684.403            100.000000      6 Oct 2022 13:56:10.028
   6 Oct 2022 19:43:23.207     6 Oct 2022 19:43:54.132     6 Oct 2022 20:27:36.621      6 Oct 2022 20:28:07.545    Earth                2684.337            100.000000      6 Oct 2022 19:43:54.132
   7 Oct 2022 01:31:07.313     7 Oct 2022 01:31:38.240     7 Oct 2022 02:15:20.656      7 Oct 2022 02:15:51.583    Earth                2684.270            100.000000      7 Oct 2022 01:31:38.240
   7 Oct 2022 07:18:51.420     7 Oct 2022 07:19:22.351     7 Oct 2022 08:03:04.691      7 Oct 2022 08:03:35.621    Earth                2684.200            100.000000      7 Oct 2022 07:19:22.351
   7 Oct 2022 13:06:35.531     7 Oct 2022 13:07:06.465     7 Oct 2022 13:50:48.731      7 Oct 2022 13:51:19.664    Earth                2684.132            100.000000      7 Oct 2022 13:07:06.465
   7 Oct 2022 18:54:19.641     7 Oct 2022 18:54:50.578     7 Oct 2022 19:38:32.768      7 Oct 2022 19:39:03.704    Earth                2684.063            100.000000      7 Oct 2022 18:54:50.578
   8 Oct 2022 00:42:03.755     8 Oct 2022 00:42:34.695     8 Oct 2022 01:26:16.807      8 Oct 2022 01:26:47.746    Earth                2683.991            100.000000      8 Oct 2022 00:42:34.695
   8 Oct 2022 06:29:47.871     8 Oct 2022 06:30:18.814     8 Oct 2022 07:14:00.846      8 Oct 2022 07:14:31.786    Earth                2683.915            100.000000      8 Oct 2022 06:30:18.814
   8 Oct 2022 12:17:31.989     8 Oct 2022 12:18:02.935     8 Oct 2022 13:01:44.886      8 Oct 2022 13:02:15.832    Earth                2683.843            100.000000      8 Oct 2022 12:18:02.935
   8 Oct 2022 18:05:16.109     8 Oct 2022 18:05:47.059     8 Oct 2022 18:49:28.924      8 Oct 2022 18:49:59.876    Earth                2683.768            100.000000      8 Oct 2022 18:05:47.059
   8 Oct 2022 23:53:00.231     8 Oct 2022 23:53:31.184     9 Oct 2022 00:37:12.966      9 Oct 2022 00:37:43.922    Earth                2683.691            100.000000      8 Oct 2022 23:53:31.184
   9 Oct 2022 05:40:44.356     9 Oct 2022 05:41:15.312     9 Oct 2022 06:24:57.013      9 Oct 2022 06:25:27.965    Earth                2683.609            100.000000      9 Oct 2022 05:41:15.312
   9 Oct 2022 11:28:28.483     9 Oct 2022 11:28:59.442     9 Oct 2022 12:12:41.057      9 Oct 2022 12:13:12.015    Earth                2683.533            100.000000      9 Oct 2022 11:28:59.442
   9 Oct 2022 17:16:12.610     9 Oct 2022 17:16:43.573     9 Oct 2022 18:00:25.103      9 Oct 2022 18:00:56.065    Earth                2683.455            100.000000      9 Oct 2022 17:16:43.573
   9 Oct 2022 23:03:56.742     9 Oct 2022 23:04:27.708     9 Oct 2022 23:48:09.149      9 Oct 2022 23:48:40.114    Earth                2683.372            100.000000      9 Oct 2022 23:04:27.708
  10 Oct 2022 04:51:40.875    10 Oct 2022 04:52:11.844    10 Oct 2022 05:35:53.196     10 Oct 2022 05:36:24.164    Earth                2683.289            100.000000     10 Oct 2022 04:52:11.844
  10 Oct 2022 10:39:25.011    10 Oct 2022 10:39:55.984    10 Oct 2022 11:23:37.238     10 Oct 2022 11:24:08.213    Earth                2683.202            100.000000     10 Oct 2022 10:39:55.984
  10 Oct 2022 16:27:09.149    10 Oct 2022 16:27:40.125    10 Oct 2022 17:11:21.292     10 Oct 2022 17:11:52.267    Earth                2683.118            100.000000     10 Oct 2022 16:27:40.125
  10 Oct 2022 22:14:53.290    10 Oct 2022 22:15:24.269    10 Oct 2022 22:59:05.342     10 Oct 2022 22:59:36.315    Earth                2683.026            100.000000     10 Oct 2022 22:15:24.269
  11 Oct 2022 04:02:37.432    11 Oct 2022 04:03:08.415    11 Oct 2022 04:46:49.387     11 Oct 2022 04:47:20.374    Earth                2682.942            100.000000     11 Oct 2022 04:03:08.415
  11 Oct 2022 09:50:21.578    11 Oct 2022 09:50:52.564    11 Oct 2022 10:34:33.443     11 Oct 2022 10:35:04.425    Earth                2682.847            100.000000     11 Oct 2022 09:50:52.564
  11 Oct 2022 15:38:05.725    11 Oct 2022 15:38:36.715    11 Oct 2022 16:22:17.496     11 Oct 2022 16:22:48.480    Earth                2682.755            100.000000     11 Oct 2022 15:38:36.715
  11 Oct 2022 21:25:49.875    11 Oct 2022 21:26:20.868    11 Oct 2022 22:10:01.550     11 Oct 2022 22:10:32.542    Earth                2682.666            100.000000     11 Oct 2022 21:26:20.868
  12 Oct 2022 03:13:34.028    12 Oct 2022 03:14:05.024    12 Oct 2022 03:57:45.599     12 Oct 2022 03:58:16.595    Earth                2682.567            100.000000     12 Oct 2022 03:14:05.024
  12 Oct 2022 09:01:18.183    12 Oct 2022 09:01:49.183    12 Oct 2022 09:45:29.654     12 Oct 2022 09:46:00.658    Earth                2682.475            100.000000     12 Oct 2022 09:01:49.183
  12 Oct 2022 14:49:02.340    12 Oct 2022 14:49:33.343    12 Oct 2022 15:33:13.715     12 Oct 2022 15:33:44.713    Earth                2682.372            100.000000     12 Oct 2022 14:49:33.343
  12 Oct 2022 20:36:46.500    12 Oct 2022 20:37:17.507    12 Oct 2022 21:20:57.772     12 Oct 2022 21:21:28.778    Earth                2682.278            100.000000     12 Oct 2022 20:37:17.507
  13 Oct 2022 02:24:30.662    13 Oct 2022 02:25:01.673    13 Oct 2022 03:08:41.830     13 Oct 2022 03:09:12.835    Earth                2682.172            100.000000     13 Oct 2022 02:25:01.673
  13 Oct 2022 08:12:14.827    13 Oct 2022 08:12:45.841    13 Oct 2022 08:56:25.889     13 Oct 2022 08:56:56.902    Earth                2682.075            100.000000     13 Oct 2022 08:12:45.841
  13 Oct 2022 13:59:58.995    13 Oct 2022 14:00:30.012    13 Oct 2022 14:44:09.949     13 Oct 2022 14:44:40.965    Earth                2681.971            100.000000     13 Oct 2022 14:00:30.012
  13 Oct 2022 19:47:43.164    13 Oct 2022 19:48:14.185    13 Oct 2022 20:31:54.009     13 Oct 2022 20:32:25.029    Earth                2681.865            100.000000     13 Oct 2022 19:48:14.185
  14 Oct 2022 01:35:27.337    14 Oct 2022 01:35:58.361    14 Oct 2022 02:19:38.066     14 Oct 2022 02:20:09.094    Earth                2681.758            100.000000     14 Oct 2022 01:35:58.361
  14 Oct 2022 07:23:11.512    14 Oct 2022 07:23:42.540    14 Oct 2022 08:07:22.133     14 Oct 2022 08:07:53.160    Earth                2681.648            100.000000     14 Oct 2022 07:23:42.540
  14 Oct 2022 13:10:55.690    14 Oct 2022 13:11:26.721    14 Oct 2022 13:55:06.196     14 Oct 2022 13:55:37.227    Earth                2681.538            100.000000     14 Oct 2022 13:11:26.721
  14 Oct 2022 18:58:39.870    14 Oct 2022 18:59:10.905    14 Oct 2022 19:42:50.260     14 Oct 2022 19:43:21.295    Earth                2681.425            100.000000     14 Oct 2022 18:59:10.905
  15 Oct 2022 00:46:24.053    15 Oct 2022 00:46:55.092    15 Oct 2022 01:30:34.325     15 Oct 2022 01:31:05.363    Earth                2681.311            100.000000     15 Oct 2022 00:46:55.092
  15 Oct 2022 06:34:08.238    15 Oct 2022 06:34:39.281    15 Oct 2022 07:18:18.391     15 Oct 2022 07:18:49.433    Earth                2681.195            100.000000     15 Oct 2022 06:34:39.281
  15 Oct 2022 12:21:52.426    15 Oct 2022 12:22:23.473    15 Oct 2022 13:06:02.457     15 Oct 2022 13:06:33.503    Earth                2681.077            100.000000     15 Oct 2022 12:22:23.473
  15 Oct 2022 18:09:36.617    15 Oct 2022 18:10:07.667    15 Oct 2022 18:53:46.525     15 Oct 2022 18:54:17.574    Earth                2680.957            100.000000     15 Oct 2022 18:10:07.667
  15 Oct 2022 23:57:20.810    15 Oct 2022 23:57:51.864    16 Oct 2022 00:41:30.593     16 Oct 2022 00:42:01.646    Earth                2680.836            100.000000     15 Oct 2022 23:57:51.864
  16 Oct 2022 05:45:05.006    16 Oct 2022 05:45:36.064    16 Oct 2022 06:29:14.661     16 Oct 2022 06:29:45.718    Earth                2680.712            100.000000     16 Oct 2022 05:45:36.064
  16 Oct 2022 11:32:49.205    16 Oct 2022 11:33:20.266    16 Oct 2022 12:16:58.731     16 Oct 2022 12:17:29.792    Earth                2680.587            100.000000     16 Oct 2022 11:33:20.266
  16 Oct 2022 17:20:33.406    16 Oct 2022 17:21:04.471    16 Oct 2022 18:04:42.796     16 Oct 2022 18:05:13.861    Earth                2680.455            100.000000     16 Oct 2022 17:21:04.471
  16 Oct 2022 23:08:17.610    16 Oct 2022 23:08:48.679    16 Oct 2022 23:52:26.867     16 Oct 2022 23:52:57.938    Earth                2680.328            100.000000     16 Oct 2022 23:08:48.679
  17 Oct 2022 04:56:01.817    17 Oct 2022 04:56:32.890    17 Oct 2022 05:40:10.939     17 Oct 2022 05:40:42.011    Earth                2680.194            100.000000     17 Oct 2022 04:56:32.890
  17 Oct 2022 10:43:46.026    17 Oct 2022 10:44:17.103    17 Oct 2022 11:27:55.011     17 Oct 2022 11:28:26.091    Earth                2680.065            100.000000     17 Oct 2022 10:44:17.103
  17 Oct 2022 16:31:30.239    17 Oct 2022 16:32:01.320    17 Oct 2022 17:15:39.084     17 Oct 2022 17:16:10.164    Earth                2679.926            100.000000     17 Oct 2022 16:32:01.320
  17 Oct 2022 22:19:14.454    17 Oct 2022 22:19:45.539    17 Oct 2022 23:03:23.163     17 Oct 2022 23:03:54.247    Earth                2679.793            100.000000     17 Oct 2022 22:19:45.539
  18 Oct 2022 04:06:58.671    18 Oct 2022 04:07:29.760    18 Oct 2022 04:51:07.237     18 Oct 2022 04:51:38.325    Earth                2679.654            100.000000     18 Oct 2022 04:07:29.760
  18 Oct 2022 09:54:42.892    18 Oct 2022 09:55:13.985    18 Oct 2022 10:38:51.312     18 Oct 2022 10:39:22.404    Earth                2679.512            100.000000     18 Oct 2022 09:55:13.985
  18 Oct 2022 15:42:27.115    18 Oct 2022 15:42:58.212    18 Oct 2022 16:26:35.387     18 Oct 2022 16:27:06.483    Earth                2679.368            100.000000     18 Oct 2022 15:42:58.212
  18 Oct 2022 21:30:11.341    18 Oct 2022 21:30:42.442    18 Oct 2022 22:14:19.463     18 Oct 2022 22:14:50.563    Earth                2679.222            100.000000     18 Oct 2022 21:30:42.442
  19 Oct 2022 03:17:55.570    19 Oct 2022 03:18:26.675    19 Oct 2022 04:02:03.540     19 Oct 2022 04:02:34.644    Earth                2679.074            100.000000     19 Oct 2022 03:18:26.675
  19 Oct 2022 09:05:39.801    19 Oct 2022 09:06:10.910    19 Oct 2022 09:49:47.617     19 Oct 2022 09:50:18.725    Earth                2678.924            100.000000     19 Oct 2022 09:06:10.910
  19 Oct 2022 14:53:24.035    19 Oct 2022 14:53:55.149    19 Oct 2022 15:37:31.694     19 Oct 2022 15:38:02.807    Earth                2678.771            100.000000     19 Oct 2022 14:53:55.149
  19 Oct 2022 20:41:08.273    19 Oct 2022 20:41:39.390    19 Oct 2022 21:25:15.772     19 Oct 2022 21:25:46.889    Earth                2678.616            100.000000     19 Oct 2022 20:41:39.390
  20 Oct 2022 02:28:52.512    20 Oct 2022 02:29:23.634    20 Oct 2022 03:12:59.846     20 Oct 2022 03:13:30.967    Earth                2678.454            100.000000     20 Oct 2022 02:29:23.634
  20 Oct 2022 08:16:36.755    20 Oct 2022 08:17:07.881    20 Oct 2022 09:00:43.924     20 Oct 2022 09:01:15.049    Earth                2678.294            100.000000     20 Oct 2022 08:17:07.881
  20 Oct 2022 14:04:21.001    20 Oct 2022 14:04:52.134    20 Oct 2022 14:48:28.008     20 Oct 2022 14:48:59.138    Earth                2678.137            100.000000     20 Oct 2022 14:04:52.134
  20 Oct 2022 19:52:05.249    20 Oct 2022 19:52:36.384    20 Oct 2022 20:36:12.086     20 Oct 2022 20:36:43.217    Earth                2677.968            100.000000     20 Oct 2022 19:52:36.384
  21 Oct 2022 01:39:49.501    21 Oct 2022 01:40:20.639    21 Oct 2022 02:23:56.168     21 Oct 2022 02:24:27.306    Earth                2677.805            100.000000     21 Oct 2022 01:40:20.639
  21 Oct 2022 07:27:33.754    21 Oct 2022 07:28:04.898    21 Oct 2022 08:11:40.248     21 Oct 2022 08:12:11.391    Earth                2677.636            100.000000     21 Oct 2022 07:28:04.898
  21 Oct 2022 13:15:18.011    21 Oct 2022 13:15:49.159    21 Oct 2022 13:59:24.329     21 Oct 2022 13:59:55.476    Earth                2677.464            100.000000     21 Oct 2022 13:15:49.159
  21 Oct 2022 19:03:02.271    21 Oct 2022 19:03:33.424    21 Oct 2022 19:47:08.409     21 Oct 2022 19:47:39.561    Earth                2677.290            100.000000     21 Oct 2022 19:03:33.424
  22 Oct 2022 00:50:46.534    22 Oct 2022 00:51:17.691    22 Oct 2022 01:34:52.490     22 Oct 2022 01:35:23.646    Earth                2677.113            100.000000     22 Oct 2022 00:51:17.691
  22 Oct 2022 06:38:30.799    22 Oct 2022 06:39:01.961    22 Oct 2022 07:22:36.572     22 Oct 2022 07:23:07.732    Earth                2676.933            100.000000     22 Oct 2022 06:39:01.961
  22 Oct 2022 12:26:15.067    22 Oct 2022 12:26:46.233    22 Oct 2022 13:10:20.653     22 Oct 2022 13:10:51.818    Earth                2676.750            100.000000     22 Oct 2022 12:26:46.233
  22 Oct 2022 18:13:59.339    22 Oct 2022 18:14:30.509    22 Oct 2022 18:58:04.735     22 Oct 2022 18:58:35.904    Earth                2676.565            100.000000     22 Oct 2022 18:14:30.509
  23 Oct 2022 00:01:43.613    23 Oct 2022 00:02:14.788    23 Oct 2022 00:45:48.811     23 Oct 2022 00:46:19.985    Earth                2676.373            100.000000     23 Oct 2022 00:02:14.788
  23 Oct 2022 05:49:27.892    23 Oct 2022 05:49:59.072    23 Oct 2022 06:33:32.898     23 Oct 2022 06:34:04.076    Earth                2676.184            100.000000     23 Oct 2022 05:49:59.072
  23 Oct 2022 11:37:12.172    23 Oct 2022 11:37:43.356    23 Oct 2022 12:21:16.979     23 Oct 2022 12:21:48.163    Earth                2675.991            100.000000     23 Oct 2022 11:37:43.356
  23 Oct 2022 17:24:56.454    23 Oct 2022 17:25:27.644    23 Oct 2022 18:09:01.061     23 Oct 2022 18:09:32.249    Earth                2675.795            100.000000     23 Oct 2022 17:25:27.644
  23 Oct 2022 23:12:40.740    23 Oct 2022 23:13:11.934    23 Oct 2022 23:56:45.143     23 Oct 2022 23:57:16.336    Earth                2675.596            100.000000     23 Oct 2022 23:13:11.934
  24 Oct 2022 05:00:25.028    24 Oct 2022 05:00:56.227    24 Oct 2022 05:44:29.224     24 Oct 2022 05:45:00.422    Earth                2675.394            100.000000     24 Oct 2022 05:00:56.227
  24 Oct 2022 10:48:09.320    24 Oct 2022 10:48:40.524    24 Oct 2022 11:32:13.306     24 Oct 2022 11:32:44.509    Earth                2675.189            100.000000     24 Oct 2022 10:48:40.524
  24 Oct 2022 16:35:53.614    24 Oct 2022 16:36:24.823    24 Oct 2022 17:19:57.387     24 Oct 2022 17:20:28.595    Earth                2674.981            100.000000     24 Oct 2022 16:36:24.823
  24 Oct 2022 22:23:37.911    24 Oct 2022 22:24:09.125    24 Oct 2022 23:07:41.469     24 Oct 2022 23:08:12.681    Earth                2674.770            100.000000     24 Oct 2022 22:24:09.125
  25 Oct 2022 04:11:22.211    25 Oct 2022 04:11:53.429    25 Oct 2022 04:55:25.549     25 Oct 2022 04:55:56.767    Earth                2674.556            100.000000     25 Oct 2022 04:11:53.429
  25 Oct 2022 09:59:06.513    25 Oct 2022 09:59:37.737    25 Oct 2022 10:43:09.630     25 Oct 2022 10:43:40.853    Earth                2674.339            100.000000     25 Oct 2022 09:59:37.737
  25 Oct 2022 14:54:31.489                         N/A                         N/A     25 Oct 2022 15:08:44.608    Moon                  853.119              1.456294     25 Oct 2022 15:02:08.227
  25 Oct 2022 15:46:50.819    25 Oct 2022 15:47:22.048    25 Oct 2022 16:30:53.711     25 Oct 2022 16:31:24.938    Earth                2674.119            100.000000     25 Oct 2022 15:47:22.048
  25 Oct 2022 21:34:35.128    25 Oct 2022 21:35:06.362    25 Oct 2022 22:18:37.791     25 Oct 2022 22:19:09.023    Earth                2673.896            100.000000     25 Oct 2022 21:35:06.362
  26 Oct 2022 03:22:19.439    26 Oct 2022 03:22:50.678    26 Oct 2022 04:06:21.870     26 Oct 2022 04:06:53.108    Earth                2673.669            100.000000     26 Oct 2022 03:22:50.678
  26 Oct 2022 09:10:03.753    26 Oct 2022 09:10:34.998    26 Oct 2022 09:54:05.950     26 Oct 2022 09:54:37.193    Earth                2673.439            100.000000     26 Oct 2022 09:10:34.998
  26 Oct 2022 14:57:48.070    26 Oct 2022 14:58:19.320    26 Oct 2022 15:41:50.029     26 Oct 2022 15:42:21.277    Earth                2673.206            100.000000     26 Oct 2022 14:58:19.320
  26 Oct 2022 20:45:32.390    26 Oct 2022 20:46:03.645    26 Oct 2022 21:29:34.107     26 Oct 2022 21:30:05.360    Earth                2672.970            100.000000     26 Oct 2022 20:46:03.645
  27 Oct 2022 02:33:16.713    27 Oct 2022 02:33:47.973    27 Oct 2022 03:17:18.185     27 Oct 2022 03:17:49.443    Earth                2672.730            100.000000     27 Oct 2022 02:33:47.973
  27 Oct 2022 08:21:01.039    27 Oct 2022 08:21:32.305    27 Oct 2022 09:05:02.262     27 Oct 2022 09:05:33.526    Earth                2672.487            100.000000     27 Oct 2022 08:21:32.305
  27 Oct 2022 14:08:45.368    27 Oct 2022 14:09:16.639    27 Oct 2022 14:52:46.339     27 Oct 2022 14:53:17.608    Earth                2672.241            100.000000     27 Oct 2022 14:09:16.639
  27 Oct 2022 19:56:29.699    27 Oct 2022 19:57:00.976    27 Oct 2022 20:40:30.415     27 Oct 2022 20:41:01.690    Earth                2671.991            100.000000     27 Oct 2022 19:57:00.976
  28 Oct 2022 01:44:14.033    28 Oct 2022 01:44:45.315    28 Oct 2022 02:28:14.490     28 Oct 2022 02:28:45.770    Earth                2671.737            100.000000     28 Oct 2022 01:44:45.315
  28 Oct 2022 07:31:58.371    28 Oct 2022 07:32:29.658    28 Oct 2022 08:15:58.565     28 Oct 2022 08:16:29.851    Earth                2671.480            100.000000     28 Oct 2022 07:32:29.658
  28 Oct 2022 13:19:42.711    28 Oct 2022 13:20:14.004    28 Oct 2022 14:03:42.638     28 Oct 2022 14:04:13.930    Earth                2671.219            100.000000     28 Oct 2022 13:20:14.004
  28 Oct 2022 19:07:27.054    28 Oct 2022 19:07:58.353    28 Oct 2022 19:51:26.711     28 Oct 2022 19:51:58.006    Earth                2670.953            100.000000     28 Oct 2022 19:07:58.353
  29 Oct 2022 00:55:11.397    29 Oct 2022 00:55:42.702    29 Oct 2022 01:39:10.784     29 Oct 2022 01:39:42.082    Earth                2670.685            100.000000     29 Oct 2022 00:55:42.702
  29 Oct 2022 06:42:55.748    29 Oct 2022 06:43:27.059    29 Oct 2022 07:26:54.855     29 Oct 2022 07:27:26.164    Earth                2670.416            100.000000     29 Oct 2022 06:43:27.059
  29 Oct 2022 12:30:40.100    29 Oct 2022 12:31:11.416    29 Oct 2022 13:14:38.925     29 Oct 2022 13:15:10.240    Earth                2670.140            100.000000     29 Oct 2022 12:31:11.416
  29 Oct 2022 18:18:24.454    29 Oct 2022 18:18:55.776    29 Oct 2022 19:02:22.995     29 Oct 2022 19:02:54.315    Earth                2669.861            100.000000     29 Oct 2022 18:18:55.776
  30 Oct 2022 00:06:08.812    30 Oct 2022 00:06:40.140    30 Oct 2022 00:50:07.063     30 Oct 2022 00:50:38.389    Earth                2669.578            100.000000     30 Oct 2022 00:06:40.140
  30 Oct 2022 05:53:53.172    30 Oct 2022 05:54:24.506    30 Oct 2022 06:37:51.130     30 Oct 2022 06:38:22.463    Earth                2669.291            100.000000     30 Oct 2022 05:54:24.506
  30 Oct 2022 11:41:37.535    30 Oct 2022 11:42:08.875    30 Oct 2022 12:25:35.197     30 Oct 2022 12:26:06.535    Earth                2669.000            100.000000     30 Oct 2022 11:42:08.875
  30 Oct 2022 17:29:21.902    30 Oct 2022 17:29:53.248    30 Oct 2022 18:13:19.262     30 Oct 2022 18:13:50.606    Earth                2668.705            100.000000     30 Oct 2022 17:29:53.248
  30 Oct 2022 23:17:06.271    30 Oct 2022 23:17:37.623    31 Oct 2022 00:01:03.326     31 Oct 2022 00:01:34.677    Earth                2668.406            100.000000     30 Oct 2022 23:17:37.623
  31 Oct 2022 05:04:50.643    31 Oct 2022 05:05:22.001    31 Oct 2022 05:48:47.389     31 Oct 2022 05:49:18.746    Earth                2668.103            100.000000     31 Oct 2022 05:05:22.001
  31 Oct 2022 10:52:35.018    31 Oct 2022 10:53:06.383    31 Oct 2022 11:36:31.451     31 Oct 2022 11:37:02.814    Earth                2667.796            100.000000     31 Oct 2022 10:53:06.383
  31 Oct 2022 16:40:19.396    31 Oct 2022 16:40:50.767    31 Oct 2022 17:24:15.512     31 Oct 2022 17:24:46.881    Earth                2667.485            100.000000     31 Oct 2022 16:40:50.767
  31 Oct 2022 22:28:03.777    31 Oct 2022 22:28:35.155    31 Oct 2022 23:11:59.571     31 Oct 2022 23:12:30.946    Earth                2667.169            100.000000     31 Oct 2022 22:28:35.155
   1 Nov 2022 04:15:48.162     1 Nov 2022 04:16:19.545     1 Nov 2022 04:59:43.629      1 Nov 2022 05:00:15.011    Earth                2666.849            100.000000      1 Nov 2022 04:16:19.545
   1 Nov 2022 10:03:32.549     1 Nov 2022 10:04:03.939     1 Nov 2022 10:47:27.686      1 Nov 2022 10:47:59.074    Earth                2666.525            100.000000      1 Nov 2022 10:04:03.939
   1 Nov 2022 15:51:16.937     1 Nov 2022 15:51:48.336     1 Nov 2022 16:35:11.741      1 Nov 2022 16:35:43.136    Earth                2666.199            100.000000      1 Nov 2022 15:51:48.336
   1 Nov 2022 21:39:01.330     1 Nov 2022 21:39:32.734     1 Nov 2022 22:22:55.795      1 Nov 2022 22:23:27.192    Earth                2665.862            100.000000      1 Nov 2022 21:39:32.734
   2 Nov 2022 03:26:45.729     2 Nov 2022 03:27:17.139     2 Nov 2022 04:10:39.848      2 Nov 2022 04:11:11.256    Earth                2665.527            100.000000      2 Nov 2022 03:27:17.139
   2 Nov 2022 09:14:30.129     2 Nov 2022 09:15:01.546     2 Nov 2022 09:58:23.899      2 Nov 2022 09:58:55.314    Earth                2665.185            100.000000      2 Nov 2022 09:15:01.546
   2 Nov 2022 15:02:14.532     2 Nov 2022 15:02:45.955     2 Nov 2022 15:46:07.949      2 Nov 2022 15:46:39.371    Earth                2664.839            100.000000      2 Nov 2022 15:02:45.955
   2 Nov 2022 20:49:58.938     2 Nov 2022 20:50:30.368     2 Nov 2022 21:33:51.998      2 Nov 2022 21:34:23.426    Earth                2664.488            100.000000      2 Nov 2022 20:50:30.368
   3 Nov 2022 02:37:43.347     3 Nov 2022 02:38:14.783     3 Nov 2022 03:21:36.045      3 Nov 2022 03:22:07.480    Earth                2664.133            100.000000      3 Nov 2022 02:38:14.783
   3 Nov 2022 08:25:27.760     3 Nov 2022 08:25:59.204     3 Nov 2022 09:09:20.090      3 Nov 2022 09:09:51.532    Earth                2663.772            100.000000      3 Nov 2022 08:25:59.204
   3 Nov 2022 14:13:12.176     3 Nov 2022 14:13:43.625     3 Nov 2022 14:57:04.134      3 Nov 2022 14:57:35.583    Earth                2663.407            100.000000      3 Nov 2022 14:13:43.625
   3 Nov 2022 20:00:56.595     3 Nov 2022 20:01:28.053     3 Nov 2022 20:44:48.177      3 Nov 2022 20:45:19.633    Earth                2663.038            100.000000      3 Nov 2022 20:01:28.053
   4 Nov 2022 01:48:41.017     4 Nov 2022 01:49:12.481     4 Nov 2022 02:32:32.218      4 Nov 2022 02:33:03.681    Earth                2662.663            100.000000      4 Nov 2022 01:49:12.481
   4 Nov 2022 07:36:25.443     4 Nov 2022 07:36:56.916     4 Nov 2022 08:20:16.257      4 Nov 2022 08:20:47.727    Earth                2662.284            100.000000      4 Nov 2022 07:36:56.916
   4 Nov 2022 13:24:09.873     4 Nov 2022 13:24:41.351     4 Nov 2022 14:08:00.295      4 Nov 2022 14:08:31.772    Earth                2661.899            100.000000      4 Nov 2022 13:24:41.351
   4 Nov 2022 19:11:54.306     4 Nov 2022 19:12:25.791     4 Nov 2022 19:55:44.331      4 Nov 2022 19:56:15.816    Earth                2661.510            100.000000      4 Nov 2022 19:12:25.791
   5 Nov 2022 00:59:38.742     5 Nov 2022 01:00:10.234     5 Nov 2022 01:43:28.365      5 Nov 2022 01:43:59.857    Earth                2661.116            100.000000      5 Nov 2022 01:00:10.234
   5 Nov 2022 06:47:23.182     5 Nov 2022 06:47:54.684     5 Nov 2022 07:31:12.398      5 Nov 2022 07:31:43.898    Earth                2660.716            100.000000      5 Nov 2022 06:47:54.684
   5 Nov 2022 12:35:07.625     5 Nov 2022 12:35:39.134     5 Nov 2022 13:18:56.429      5 Nov 2022 13:19:27.936    Earth                2660.311            100.000000      5 Nov 2022 12:35:39.134
   5 Nov 2022 18:22:52.072     5 Nov 2022 18:23:23.587     5 Nov 2022 19:06:40.459      5 Nov 2022 19:07:11.974    Earth                2659.901            100.000000      5 Nov 2022 18:23:23.587
   6 Nov 2022 00:10:36.523     6 Nov 2022 00:11:08.047     6 Nov 2022 00:54:24.487      6 Nov 2022 00:54:56.009    Earth                2659.486            100.000000      6 Nov 2022 00:11:08.047
   6 Nov 2022 05:58:20.977     6 Nov 2022 05:58:52.509     6 Nov 2022 06:42:08.513      6 Nov 2022 06:42:40.043    Earth                2659.066            100.000000      6 Nov 2022 05:58:52.509
   6 Nov 2022 11:46:05.435     6 Nov 2022 11:46:36.973     6 Nov 2022 12:29:52.537      6 Nov 2022 12:30:24.075    Earth                2658.640            100.000000      6 Nov 2022 11:46:36.973
   6 Nov 2022 17:33:49.897     6 Nov 2022 17:34:21.442     6 Nov 2022 18:17:36.560      6 Nov 2022 18:18:08.105    Earth                2658.209            100.000000      6 Nov 2022 17:34:21.442
   6 Nov 2022 23:21:34.362     6 Nov 2022 23:22:05.918     7 Nov 2022 00:05:20.581      7 Nov 2022 00:05:52.134    Earth                2657.772            100.000000      6 Nov 2022 23:22:05.918
   7 Nov 2022 05:09:18.832     7 Nov 2022 05:09:50.393     7 Nov 2022 05:53:04.600      7 Nov 2022 05:53:36.161    Earth                2657.330            100.000000      7 Nov 2022 05:09:50.393
   7 Nov 2022 10:57:03.305     7 Nov 2022 10:57:34.876     7 Nov 2022 11:40:48.617      7 Nov 2022 11:41:20.187    Earth                2656.882            100.000000      7 Nov 2022 10:57:34.876
   7 Nov 2022 16:44:47.779     7 Nov 2022 16:45:19.359     7 Nov 2022 17:28:32.633      7 Nov 2022 17:29:04.210    Earth                2656.431            100.000000      7 Nov 2022 16:45:19.359
   7 Nov 2022 22:32:32.261     7 Nov 2022 22:33:03.848     7 Nov 2022 23:16:16.647      7 Nov 2022 23:16:48.232    Earth                2655.972            100.000000      7 Nov 2022 22:33:03.848
   8 Nov 2022 04:20:16.746     8 Nov 2022 04:20:48.342     8 Nov 2022 05:04:00.659      8 Nov 2022 05:04:32.252    Earth                2655.507            100.000000      8 Nov 2022 04:20:48.342
   8 Nov 2022 10:08:01.235     8 Nov 2022 10:08:32.839     8 Nov 2022 10:51:44.669      8 Nov 2022 10:52:16.271    Earth                2655.036            100.000000      8 Nov 2022 10:08:32.839
   8 Nov 2022 15:55:45.728     8 Nov 2022 15:56:17.341     8 Nov 2022 16:39:28.677      8 Nov 2022 16:40:00.287    Earth                2654.559            100.000000      8 Nov 2022 15:56:17.341
   8 Nov 2022 21:43:30.225     8 Nov 2022 21:44:01.847     8 Nov 2022 22:27:12.683      8 Nov 2022 22:27:44.302    Earth                2654.077            100.000000      8 Nov 2022 21:44:01.847
   9 Nov 2022 03:31:14.727     9 Nov 2022 03:31:46.357     9 Nov 2022 04:14:56.687      9 Nov 2022 04:15:28.315    Earth                2653.588            100.000000      9 Nov 2022 03:31:46.357
   9 Nov 2022 09:18:59.232     9 Nov 2022 09:19:30.871     9 Nov 2022 10:02:40.690      9 Nov 2022 10:03:12.326    Earth                2653.093            100.000000      9 Nov 2022 09:19:30.871
   9 Nov 2022 15:06:43.742     9 Nov 2022 15:07:15.389     9 Nov 2022 15:50:24.690      9 Nov 2022 15:50:56.335    Earth                2652.593            100.000000      9 Nov 2022 15:07:15.389
   9 Nov 2022 20:54:28.256     9 Nov 2022 20:54:59.912     9 Nov 2022 21:38:08.688      9 Nov 2022 21:38:40.342    Earth                2652.086            100.000000      9 Nov 2022 20:54:59.912
  10 Nov 2022 02:42:12.775    10 Nov 2022 02:42:44.440    10 Nov 2022 03:25:52.685     10 Nov 2022 03:26:24.347    Earth                2651.573            100.000000     10 Nov 2022 02:42:44.440
  10 Nov 2022 08:29:57.298    10 Nov 2022 08:30:28.971    10 Nov 2022 09:13:36.679     10 Nov 2022 09:14:08.351    Earth                2651.053            100.000000     10 Nov 2022 08:30:28.971
  10 Nov 2022 14:17:41.825    10 Nov 2022 14:18:13.508    10 Nov 2022 15:01:20.672     10 Nov 2022 15:01:52.352    Earth                2650.527            100.000000     10 Nov 2022 14:18:13.508
  10 Nov 2022 20:05:26.356    10 Nov 2022 20:05:58.048    10 Nov 2022 20:49:04.662     10 Nov 2022 20:49:36.352    Earth                2649.995            100.000000     10 Nov 2022 20:05:58.048
  11 Nov 2022 01:53:10.892    11 Nov 2022 01:53:42.594    11 Nov 2022 02:36:48.650     11 Nov 2022 02:37:20.349    Earth                2649.457            100.000000     11 Nov 2022 01:53:42.594
  11 Nov 2022 07:40:55.433    11 Nov 2022 07:41:27.144    11 Nov 2022 08:24:32.637     11 Nov 2022 08:25:04.345    Earth                2648.911            100.000000     11 Nov 2022 07:41:27.144
  11 Nov 2022 13:28:39.978    11 Nov 2022 13:29:11.698    11 Nov 2022 14:12:16.621     11 Nov 2022 14:12:48.338    Earth                2648.360            100.000000     11 Nov 2022 13:29:11.698
  11 Nov 2022 19:16:24.528    11 Nov 2022 19:16:56.257    11 Nov 2022 20:00:00.603     11 Nov 2022 20:00:32.329    Earth                2647.801            100.000000     11 Nov 2022 19:16:56.257
  12 Nov 2022 01:04:09.082    12 Nov 2022 01:04:40.821    12 Nov 2022 01:47:44.582     12 Nov 2022 01:48:16.319    Earth                2647.236            100.000000     12 Nov 2022 01:04:40.821
  12 Nov 2022 06:51:53.644    12 Nov 2022 06:52:25.390    12 Nov 2022 07:35:28.560     12 Nov 2022 07:36:00.306    Earth                2646.662            100.000000     12 Nov 2022 06:52:25.390
  12 Nov 2022 12:39:38.208    12 Nov 2022 12:40:09.964    12 Nov 2022 13:23:12.535     12 Nov 2022 13:23:44.291    Earth                2646.083            100.000000     12 Nov 2022 12:40:09.964
  12 Nov 2022 18:27:22.774    12 Nov 2022 18:27:54.542    12 Nov 2022 19:10:56.509     12 Nov 2022 19:11:28.274    Earth                2645.500            100.000000     12 Nov 2022 18:27:54.542
  13 Nov 2022 00:15:07.347    13 Nov 2022 00:15:39.125    13 Nov 2022 00:58:40.480     13 Nov 2022 00:59:12.255    Earth                2644.908            100.000000     13 Nov 2022 00:15:39.125
  13 Nov 2022 06:02:51.928    13 Nov 2022 06:03:23.717    13 Nov 2022 06:46:24.448     13 Nov 2022 06:46:56.234    Earth                2644.306            100.000000     13 Nov 2022 06:03:23.717
  13 Nov 2022 11:50:36.511    13 Nov 2022 11:51:08.309    13 Nov 2022 12:34:08.415     13 Nov 2022 12:34:40.210    Earth                2643.699            100.000000     13 Nov 2022 11:51:08.309
  13 Nov 2022 17:38:21.096    13 Nov 2022 17:38:52.907    13 Nov 2022 18:21:52.379     13 Nov 2022 18:22:24.184    Earth                2643.088            100.000000     13 Nov 2022 17:38:52.907
  13 Nov 2022 23:26:05.692    13 Nov 2022 23:26:37.508    14 Nov 2022 00:09:36.340     14 Nov 2022 00:10:08.156    Earth                2642.465            100.000000     13 Nov 2022 23:26:37.508
  14 Nov 2022 05:13:50.287    14 Nov 2022 05:14:22.119    14 Nov 2022 05:57:20.300     14 Nov 2022 05:57:52.126    Earth                2641.839            100.000000     14 Nov 2022 05:14:22.119
  14 Nov 2022 11:01:34.889    14 Nov 2022 11:02:06.732    14 Nov 2022 11:45:04.257     14 Nov 2022 11:45:36.094    Earth                2641.204            100.000000     14 Nov 2022 11:02:06.732
  14 Nov 2022 16:49:19.497    14 Nov 2022 16:49:51.347    14 Nov 2022 17:32:48.211     14 Nov 2022 17:33:20.059    Earth                2640.561            100.000000     14 Nov 2022 16:49:51.347
  14 Nov 2022 22:37:04.110    14 Nov 2022 22:37:35.971    14 Nov 2022 23:20:32.163     14 Nov 2022 23:21:04.021    Earth                2639.911            100.000000     14 Nov 2022 22:37:35.971
  15 Nov 2022 04:24:48.731    15 Nov 2022 04:25:20.600    15 Nov 2022 05:08:16.113     15 Nov 2022 05:08:47.982    Earth                2639.251            100.000000     15 Nov 2022 04:25:20.600
  15 Nov 2022 10:12:33.352    15 Nov 2022 10:13:05.234    15 Nov 2022 10:56:00.060     15 Nov 2022 10:56:31.940    Earth                2638.588            100.000000     15 Nov 2022 10:13:05.234
  15 Nov 2022 16:00:17.983    15 Nov 2022 16:00:49.876    15 Nov 2022 16:43:44.004     15 Nov 2022 16:44:15.895    Earth                2637.913            100.000000     15 Nov 2022 16:00:49.876
  15 Nov 2022 21:48:02.614    15 Nov 2022 21:48:34.521    15 Nov 2022 22:31:27.946     15 Nov 2022 22:31:59.848    Earth                2637.235            100.000000     15 Nov 2022 21:48:34.521
  16 Nov 2022 03:35:47.255    16 Nov 2022 03:36:19.171    16 Nov 2022 04:19:11.886     16 Nov 2022 04:19:43.799    Earth                2636.544            100.000000     16 Nov 2022 03:36:19.171
  16 Nov 2022 09:23:31.900    16 Nov 2022 09:24:03.827    16 Nov 2022 10:06:55.823     16 Nov 2022 10:07:27.747    Earth                2635.848            100.000000     16 Nov 2022 09:24:03.827
  16 Nov 2022 15:11:16.549    16 Nov 2022 15:11:48.485    16 Nov 2022 15:54:39.757     16 Nov 2022 15:55:11.693    Earth                2635.144            100.000000     16 Nov 2022 15:11:48.485
  16 Nov 2022 20:59:01.204    16 Nov 2022 20:59:33.151    16 Nov 2022 21:42:23.688     16 Nov 2022 21:42:55.636    Earth                2634.432            100.000000     16 Nov 2022 20:59:33.151
  17 Nov 2022 02:46:45.864    17 Nov 2022 02:47:17.826    17 Nov 2022 03:30:07.617     17 Nov 2022 03:30:39.576    Earth                2633.712            100.000000     17 Nov 2022 02:47:17.826
  17 Nov 2022 08:34:30.527    17 Nov 2022 08:35:02.504    17 Nov 2022 09:17:51.543     17 Nov 2022 09:18:23.514    Earth                2632.987            100.000000     17 Nov 2022 08:35:02.504
  17 Nov 2022 14:22:15.199    17 Nov 2022 14:22:47.184    17 Nov 2022 15:05:35.466     17 Nov 2022 15:06:07.449    Earth                2632.251            100.000000     17 Nov 2022 14:22:47.184
  17 Nov 2022 20:09:59.875    17 Nov 2022 20:10:31.876    17 Nov 2022 20:53:19.387     17 Nov 2022 20:53:51.382    Earth                2631.506            100.000000     17 Nov 2022 20:10:31.876
  18 Nov 2022 01:57:44.558    18 Nov 2022 01:58:16.570    18 Nov 2022 02:41:03.305     18 Nov 2022 02:41:35.312    Earth                2630.754            100.000000     18 Nov 2022 01:58:16.570
  18 Nov 2022 07:45:29.246    18 Nov 2022 07:46:01.270    18 Nov 2022 08:28:47.219     18 Nov 2022 08:29:19.239    Earth                2629.992            100.000000     18 Nov 2022 07:46:01.270
  18 Nov 2022 13:33:13.939    18 Nov 2022 13:33:45.973    18 Nov 2022 14:16:31.131     18 Nov 2022 14:17:03.163    Earth                2629.224            100.000000     18 Nov 2022 13:33:45.973
  18 Nov 2022 19:20:58.638    18 Nov 2022 19:21:30.685    18 Nov 2022 20:04:15.040     18 Nov 2022 20:04:47.084    Earth                2628.446            100.000000     18 Nov 2022 19:21:30.685
  19 Nov 2022 01:08:43.343    19 Nov 2022 01:09:15.402    19 Nov 2022 01:51:58.947     19 Nov 2022 01:52:31.003    Earth                2627.660            100.000000     19 Nov 2022 01:09:15.402
  19 Nov 2022 06:56:28.054    19 Nov 2022 06:57:00.125    19 Nov 2022 07:39:42.850     19 Nov 2022 07:40:14.919    Earth                2626.865            100.000000     19 Nov 2022 06:57:00.125
  19 Nov 2022 12:44:12.770    19 Nov 2022 12:44:44.854    19 Nov 2022 13:27:26.750     19 Nov 2022 13:27:58.832    Earth                2626.062            100.000000     19 Nov 2022 12:44:44.854
  19 Nov 2022 18:31:57.492    19 Nov 2022 18:32:29.589    19 Nov 2022 19:15:10.647     19 Nov 2022 19:15:42.742    Earth                2625.250            100.000000     19 Nov 2022 18:32:29.589
  20 Nov 2022 00:19:42.220    20 Nov 2022 00:20:14.330    20 Nov 2022 01:02:54.541     20 Nov 2022 01:03:26.649    Earth                2624.429            100.000000     20 Nov 2022 00:20:14.330
  20 Nov 2022 06:07:26.954    20 Nov 2022 06:07:59.077    20 Nov 2022 06:50:38.432     20 Nov 2022 06:51:10.553    Earth                2623.600            100.000000     20 Nov 2022 06:07:59.077
  20 Nov 2022 11:55:11.693    20 Nov 2022 11:55:43.830    20 Nov 2022 12:38:22.320     20 Nov 2022 12:38:54.454    Earth                2622.761            100.000000     20 Nov 2022 11:55:43.830
  20 Nov 2022 17:42:56.439    20 Nov 2022 17:43:28.589    20 Nov 2022 18:26:06.204     20 Nov 2022 18:26:38.352    Earth                2621.914            100.000000     20 Nov 2022 17:43:28.589
  20 Nov 2022 23:30:41.190    20 Nov 2022 23:31:13.354    21 Nov 2022 00:13:50.086     21 Nov 2022 00:14:22.247    Earth                2621.057            100.000000     20 Nov 2022 23:31:13.354
  21 Nov 2022 05:18:25.947    21 Nov 2022 05:18:58.125    21 Nov 2022 06:01:33.964     21 Nov 2022 06:02:06.139    Earth                2620.192            100.000000     21 Nov 2022 05:18:58.125
  21 Nov 2022 11:06:10.711    21 Nov 2022 11:06:42.902    21 Nov 2022 11:49:17.838     21 Nov 2022 11:49:50.028    Earth                2619.317            100.000000     21 Nov 2022 11:06:42.902
  21 Nov 2022 16:53:55.480    21 Nov 2022 16:54:27.685    21 Nov 2022 17:37:01.710     21 Nov 2022 17:37:33.913    Earth                2618.434            100.000000     21 Nov 2022 16:54:27.685
  21 Nov 2022 22:41:40.255    21 Nov 2022 22:42:12.475    21 Nov 2022 23:24:45.578     21 Nov 2022 23:25:17.796    Earth                2617.541            100.000000     21 Nov 2022 22:42:12.475
  22 Nov 2022 04:29:25.036    22 Nov 2022 04:29:57.270    22 Nov 2022 05:12:29.443     22 Nov 2022 05:13:01.675    Earth                2616.638            100.000000     22 Nov 2022 04:29:57.270
  22 Nov 2022 10:17:09.824    22 Nov 2022 10:17:42.072    22 Nov 2022 11:00:13.304     22 Nov 2022 11:00:45.550    Earth                2615.727            100.000000     22 Nov 2022 10:17:42.072
  22 Nov 2022 16:04:54.617    22 Nov 2022 16:05:26.880    22 Nov 2022 16:47:57.162     22 Nov 2022 16:48:29.423    Earth                2614.806            100.000000     22 Nov 2022 16:05:26.880
  22 Nov 2022 21:52:39.417    22 Nov 2022 21:53:11.694    22 Nov 2022 22:35:41.016     22 Nov 2022 22:36:13.292    Earth                2613.875            100.000000     22 Nov 2022 21:53:11.694
  23 Nov 2022 03:40:24.222    23 Nov 2022 03:40:56.514    23 Nov 2022 04:23:24.867     23 Nov 2022 04:23:57.157    Earth                2612.935            100.000000     23 Nov 2022 03:40:56.514
  23 Nov 2022 09:28:09.034    23 Nov 2022 09:28:41.341    23 Nov 2022 10:11:08.714     23 Nov 2022 10:11:41.019    Earth                2611.985            100.000000     23 Nov 2022 09:28:41.341
  23 Nov 2022 15:15:53.852    23 Nov 2022 15:16:26.174    23 Nov 2022 15:58:52.558     23 Nov 2022 15:59:24.878    Earth                2611.026            100.000000     23 Nov 2022 15:16:26.174
  23 Nov 2022 21:03:38.677    23 Nov 2022 21:04:11.014    23 Nov 2022 21:46:36.397     23 Nov 2022 21:47:08.733    Earth                2610.056            100.000000     23 Nov 2022 21:04:11.014
  24 Nov 2022 02:51:23.507    24 Nov 2022 02:51:55.860    24 Nov 2022 03:34:20.234     24 Nov 2022 03:34:52.585    Earth                2609.078            100.000000     24 Nov 2022 02:51:55.860
  24 Nov 2022 08:39:08.344    24 Nov 2022 08:39:40.712    24 Nov 2022 09:22:04.066     24 Nov 2022 09:22:36.432    Earth                2608.089            100.000000     24 Nov 2022 08:39:40.712
  24 Nov 2022 14:26:53.187    24 Nov 2022 14:27:25.570    24 Nov 2022 15:09:47.894     24 Nov 2022 15:10:20.277    Earth                2607.090            100.000000     24 Nov 2022 14:27:25.570
  24 Nov 2022 20:14:38.036    24 Nov 2022 20:15:10.435    24 Nov 2022 20:57:31.719     24 Nov 2022 20:58:04.117    Earth                2606.081            100.000000     24 Nov 2022 20:15:10.435
  25 Nov 2022 02:02:22.891    25 Nov 2022 02:02:55.307    25 Nov 2022 02:45:15.540     25 Nov 2022 02:45:47.954    Earth                2605.063            100.000000     25 Nov 2022 02:02:55.307
  25 Nov 2022 07:50:07.753    25 Nov 2022 07:50:40.184    25 Nov 2022 08:32:59.357     25 Nov 2022 08:33:31.787    Earth                2604.034            100.000000     25 Nov 2022 07:50:40.184
  25 Nov 2022 13:37:52.621    25 Nov 2022 13:38:25.069    25 Nov 2022 14:20:43.170     25 Nov 2022 14:21:15.616    Earth                2602.995            100.000000     25 Nov 2022 13:38:25.069
  25 Nov 2022 19:25:37.496    25 Nov 2022 19:26:09.960    25 Nov 2022 20:08:26.978     25 Nov 2022 20:08:59.441    Earth                2601.946            100.000000     25 Nov 2022 19:26:09.960
  26 Nov 2022 01:13:22.376    26 Nov 2022 01:13:54.857    26 Nov 2022 01:56:10.783     26 Nov 2022 01:56:43.263    Earth                2600.886            100.000000     26 Nov 2022 01:13:54.857
  26 Nov 2022 07:01:07.264    26 Nov 2022 07:01:39.761    26 Nov 2022 07:43:54.584     26 Nov 2022 07:44:27.080    Earth                2599.817            100.000000     26 Nov 2022 07:01:39.761
  26 Nov 2022 12:48:52.157    26 Nov 2022 12:49:24.672    26 Nov 2022 13:31:38.381     26 Nov 2022 13:32:10.894    Earth                2598.736            100.000000     26 Nov 2022 12:49:24.672
  26 Nov 2022 18:36:37.057    26 Nov 2022 18:37:09.589    26 Nov 2022 19:19:22.173     26 Nov 2022 19:19:54.703    Earth                2597.646            100.000000     26 Nov 2022 18:37:09.589
  27 Nov 2022 00:24:21.964    27 Nov 2022 00:24:54.512    27 Nov 2022 01:07:05.961     27 Nov 2022 01:07:38.509    Earth                2596.545            100.000000     27 Nov 2022 00:24:54.512
  27 Nov 2022 06:12:06.877    27 Nov 2022 06:12:39.443    27 Nov 2022 06:54:49.745     27 Nov 2022 06:55:22.310    Earth                2595.433            100.000000     27 Nov 2022 06:12:39.443
  27 Nov 2022 11:59:51.796    27 Nov 2022 12:00:24.380    27 Nov 2022 12:42:33.525     27 Nov 2022 12:43:06.105    Earth                2594.309            100.000000     27 Nov 2022 12:00:24.380
  27 Nov 2022 17:47:36.726    27 Nov 2022 17:48:09.323    27 Nov 2022 18:30:17.298     27 Nov 2022 18:30:49.901    Earth                2593.175            100.000000     27 Nov 2022 17:48:09.323
  27 Nov 2022 23:35:21.655    27 Nov 2022 23:35:54.274    28 Nov 2022 00:18:01.072     28 Nov 2022 00:18:33.689    Earth                2592.034            100.000000     27 Nov 2022 23:35:54.274
  28 Nov 2022 05:23:06.594    28 Nov 2022 05:23:39.231    28 Nov 2022 06:05:44.838     28 Nov 2022 06:06:17.474    Earth                2590.880            100.000000     28 Nov 2022 05:23:39.231
  28 Nov 2022 11:10:51.540    28 Nov 2022 11:11:24.195    28 Nov 2022 11:53:28.601     28 Nov 2022 11:54:01.255    Earth                2589.715            100.000000     28 Nov 2022 11:11:24.195
  28 Nov 2022 16:58:36.493    28 Nov 2022 16:59:09.166    28 Nov 2022 17:41:12.359     28 Nov 2022 17:41:45.031    Earth                2588.539            100.000000     28 Nov 2022 16:59:09.166
  28 Nov 2022 22:46:21.452    28 Nov 2022 22:46:54.144    28 Nov 2022 23:28:56.112     28 Nov 2022 23:29:28.804    Earth                2587.352            100.000000     28 Nov 2022 22:46:54.144
  29 Nov 2022 04:34:06.418    29 Nov 2022 04:34:39.128    29 Nov 2022 05:16:39.861     29 Nov 2022 05:17:12.571    Earth                2586.154            100.000000     29 Nov 2022 04:34:39.128
  29 Nov 2022 10:21:51.390    29 Nov 2022 10:22:24.120    29 Nov 2022 11:04:23.606     29 Nov 2022 11:04:56.335    Earth                2584.944            100.000000     29 Nov 2022 10:22:24.120
  29 Nov 2022 16:09:36.370    29 Nov 2022 16:10:09.118    29 Nov 2022 16:52:07.346     29 Nov 2022 16:52:40.094    Earth                2583.724            100.000000     29 Nov 2022 16:10:09.118
  29 Nov 2022 21:57:21.356    29 Nov 2022 21:57:54.123    29 Nov 2022 22:39:51.081     29 Nov 2022 22:40:23.849    Earth                2582.493            100.000000     29 Nov 2022 21:57:54.123
  30 Nov 2022 03:45:06.349    30 Nov 2022 03:45:39.136    30 Nov 2022 04:27:34.812     30 Nov 2022 04:28:07.599    Earth                2581.250            100.000000     30 Nov 2022 03:45:39.136
  30 Nov 2022 09:32:51.349    30 Nov 2022 09:33:24.155    30 Nov 2022 10:15:18.539     30 Nov 2022 10:15:51.345    Earth                2579.996            100.000000     30 Nov 2022 09:33:24.155
  30 Nov 2022 15:20:36.356    30 Nov 2022 15:21:09.182    30 Nov 2022 16:03:02.258     30 Nov 2022 16:03:35.087    Earth                2578.731            100.000000     30 Nov 2022 15:21:09.182
  30 Nov 2022 21:08:21.370    30 Nov 2022 21:08:54.216    30 Nov 2022 21:50:45.976     30 Nov 2022 21:51:18.824    Earth                2577.454            100.000000     30 Nov 2022 21:08:54.216
   1 Dec 2022 02:56:06.391     1 Dec 2022 02:56:39.257     1 Dec 2022 03:38:29.688      1 Dec 2022 03:39:02.557    Earth                2576.166            100.000000      1 Dec 2022 02:56:39.257
   1 Dec 2022 08:43:51.419     1 Dec 2022 08:44:24.305     1 Dec 2022 09:26:13.396      1 Dec 2022 09:26:46.285    Earth                2574.866            100.000000      1 Dec 2022 08:44:24.305
   1 Dec 2022 14:31:36.454     1 Dec 2022 14:32:09.360     1 Dec 2022 15:13:57.100      1 Dec 2022 15:14:30.009    Earth                2573.555            100.000000      1 Dec 2022 14:32:09.360
   1 Dec 2022 20:19:21.496     1 Dec 2022 20:19:54.423     1 Dec 2022 21:01:40.798      1 Dec 2022 21:02:13.728    Earth                2572.232            100.000000      1 Dec 2022 20:19:54.423
   2 Dec 2022 02:07:06.546     2 Dec 2022 02:07:39.493     2 Dec 2022 02:49:24.492      2 Dec 2022 02:49:57.443    Earth                2570.897            100.000000      2 Dec 2022 02:07:39.493
   2 Dec 2022 07:54:51.602     2 Dec 2022 07:55:24.571     2 Dec 2022 08:37:08.182      2 Dec 2022 08:37:41.153    Earth                2569.551            100.000000      2 Dec 2022 07:55:24.571
   2 Dec 2022 13:42:36.666     2 Dec 2022 13:43:09.656     2 Dec 2022 14:24:51.866      2 Dec 2022 14:25:24.859    Earth                2568.193            100.000000      2 Dec 2022 13:43:09.656
   2 Dec 2022 19:30:21.738     2 Dec 2022 19:30:54.749     2 Dec 2022 20:12:35.546      2 Dec 2022 20:13:08.560    Earth                2566.823            100.000000      2 Dec 2022 19:30:54.749
   3 Dec 2022 01:18:06.816     3 Dec 2022 01:18:39.849     3 Dec 2022 02:00:19.221      3 Dec 2022 02:00:52.257    Earth                2565.441            100.000000      3 Dec 2022 01:18:39.849
   3 Dec 2022 07:05:51.902     3 Dec 2022 07:06:24.956     3 Dec 2022 07:48:02.892      3 Dec 2022 07:48:35.949    Earth                2564.047            100.000000      3 Dec 2022 07:06:24.956
   3 Dec 2022 12:53:36.996     3 Dec 2022 12:54:10.072     3 Dec 2022 13:35:46.558      3 Dec 2022 13:36:19.637    Earth                2562.641            100.000000      3 Dec 2022 12:54:10.072
   3 Dec 2022 18:41:22.097     3 Dec 2022 18:41:55.195     3 Dec 2022 19:23:30.219      3 Dec 2022 19:24:03.320    Earth                2561.223            100.000000      3 Dec 2022 18:41:55.195
   4 Dec 2022 00:29:07.206     4 Dec 2022 00:29:40.326     4 Dec 2022 01:11:13.875      4 Dec 2022 01:11:46.999    Earth                2559.793            100.000000      4 Dec 2022 00:29:40.326
   4 Dec 2022 06:16:52.322     4 Dec 2022 06:17:25.464     4 Dec 2022 06:58:57.526      4 Dec 2022 06:59:30.671    Earth                2558.349            100.000000      4 Dec 2022 06:17:25.464
   4 Dec 2022 12:04:37.446     4 Dec 2022 12:05:10.611     4 Dec 2022 12:46:41.173      4 Dec 2022 12:47:14.340    Earth                2556.895            100.000000      4 Dec 2022 12:05:10.611
   4 Dec 2022 17:52:22.577     4 Dec 2022 17:52:55.765     4 Dec 2022 18:34:24.815      4 Dec 2022 18:34:58.006    Earth                2555.428            100.000000      4 Dec 2022 17:52:55.765
   4 Dec 2022 23:40:07.716     4 Dec 2022 23:40:40.927     5 Dec 2022 00:22:08.453      5 Dec 2022 00:22:41.666    Earth                2553.950            100.000000      4 Dec 2022 23:40:40.927
   5 Dec 2022 05:27:52.864     5 Dec 2022 05:28:26.098     5 Dec 2022 06:09:52.085      5 Dec 2022 06:10:25.322    Earth                2552.458            100.000000      5 Dec 2022 05:28:26.098
   5 Dec 2022 11:15:38.019     5 Dec 2022 11:16:11.276     5 Dec 2022 11:57:35.713      5 Dec 2022 11:58:08.973    Earth                2550.955            100.000000      5 Dec 2022 11:16:11.276
   5 Dec 2022 17:03:23.181     5 Dec 2022 17:03:56.463     5 Dec 2022 17:45:19.336      5 Dec 2022 17:45:52.620    Earth                2549.439            100.000000      5 Dec 2022 17:03:56.463
   5 Dec 2022 22:51:08.352     5 Dec 2022 22:51:41.657     5 Dec 2022 23:33:02.955      5 Dec 2022 23:33:36.263    Earth                2547.910            100.000000      5 Dec 2022 22:51:41.657
   6 Dec 2022 04:38:53.531     6 Dec 2022 04:39:26.860     6 Dec 2022 05:20:46.568      6 Dec 2022 05:21:19.900    Earth                2546.369            100.000000      6 Dec 2022 04:39:26.860
   6 Dec 2022 10:26:38.718     6 Dec 2022 10:27:12.071     6 Dec 2022 11:08:30.177      6 Dec 2022 11:09:03.534    Earth                2544.816            100.000000      6 Dec 2022 10:27:12.071
   6 Dec 2022 16:14:23.913     6 Dec 2022 16:14:57.291     6 Dec 2022 16:56:13.782      6 Dec 2022 16:56:47.162    Earth                2543.250            100.000000      6 Dec 2022 16:14:57.291
   6 Dec 2022 22:02:09.116     6 Dec 2022 22:02:42.518     6 Dec 2022 22:43:57.381      6 Dec 2022 22:44:30.787    Earth                2541.671            100.000000      6 Dec 2022 22:02:42.518
   7 Dec 2022 03:49:54.327     7 Dec 2022 03:50:27.755     7 Dec 2022 04:31:40.976      7 Dec 2022 04:32:14.406    Earth                2540.079            100.000000      7 Dec 2022 03:50:27.755
   7 Dec 2022 09:37:39.547     7 Dec 2022 09:38:12.999     7 Dec 2022 10:19:24.566      7 Dec 2022 10:19:58.022    Earth                2538.475            100.000000      7 Dec 2022 09:38:12.999
   7 Dec 2022 15:25:24.775     7 Dec 2022 15:25:58.252     7 Dec 2022 16:07:08.151      7 Dec 2022 16:07:41.632    Earth                2536.857            100.000000      7 Dec 2022 15:25:58.252
   7 Dec 2022 21:13:10.011     7 Dec 2022 21:13:43.514     7 Dec 2022 21:54:51.732      7 Dec 2022 21:55:25.238    Earth                2535.227            100.000000      7 Dec 2022 21:13:43.514
   8 Dec 2022 03:00:55.256     8 Dec 2022 03:01:28.784     8 Dec 2022 03:42:35.307      8 Dec 2022 03:43:08.840    Earth                2533.584            100.000000      8 Dec 2022 03:01:28.784
   8 Dec 2022 08:48:40.509     8 Dec 2022 08:49:14.063     8 Dec 2022 09:30:18.879      8 Dec 2022 09:30:52.437    Earth                2531.929            100.000000      8 Dec 2022 08:49:14.063
   8 Dec 2022 14:36:25.770     8 Dec 2022 14:36:59.351     8 Dec 2022 15:18:02.445      8 Dec 2022 15:18:36.030    Earth                2530.260            100.000000      8 Dec 2022 14:36:59.351
   8 Dec 2022 20:24:11.040     8 Dec 2022 20:24:44.647     8 Dec 2022 21:05:46.007      8 Dec 2022 21:06:19.620    Earth                2528.580            100.000000      8 Dec 2022 20:24:44.647
   9 Dec 2022 02:11:56.319     9 Dec 2022 02:12:29.952     9 Dec 2022 02:53:29.566      9 Dec 2022 02:54:03.204    Earth                2526.886            100.000000      9 Dec 2022 02:12:29.952
